id,country,iso3,gwno,year,geo_id,geolocation,level,adm1,location,historical,disastertype,disasterno,Dis No,latitude,longitude,Dis Mag Value,Dis Mag Scale,date,Total Deaths,No Injured,No Affected,No Homeless,Total Affected,Total Damages ('000 US$),CPI
2526,Haiti,HTI,41,2004,7309,Jacmel,2,Sud-Est,NA,0,Flood,2004-0231,2004-0231-HTI,18.29089056,-72.4560308,0,Km2,23/5/2004,2665,153,31130,0,31283,0,72.98112921
762,Bosnia And Herzegovina,BIH,346,2010,2664,Zvornik,3,Repuplika Srpska,Zvornik,0,Flood,2010-0619,2010-0619-BIH,44.45026171,19.06985843,0,Km2,3/12/2010,3,0,20000,0,20000,0,84.25273272
4366,Mozambique,MOZ,541,2001,13910,Zumbu,2,Tete,Zumbo,0,Flood,2001-0019,2001-0019-MOZ,-15.22877349,30.93504634,200000,Km2,1/1/2001,79,0,549326,0,549326,36000,68.41537906
4376,Mozambique,MOZ,541,2007,13911,Zumbu,2,Tete,Zumbo,0,Flood,2007-0020,2007-0020-MOZ,-15.22877349,30.93504634,0,Km2,17/1/2007,29,0,285000,0,285000,71000,80.11339326
7223,Venezuela,VEN,101,2003,26393,Zulia,1,Zulia,Zulia state,0,Flood,2003-0773,2003-0773-VEN,9.931299976,-72.08522744,0,Km2,26/8/2003,0,0,0,200,200,0,71.07819758
7219,Venezuela,VEN,101,1999,26391,Zulia,1,Zulia,Zulia,0,Flood,1999-0547,1999-0547-VEN,9.931299976,-72.08522744,350,Km2,15/12/1999,30000,2700,366547,114388,483635,3160000,64.36159282
7220,Venezuela,VEN,101,2000,26392,Zulia,1,Zulia,Zulia,0,Flood,2000-0735,2000-0735-VEN,9.931299976,-72.08522744,77730,Km2,12/11/2000,2,0,7000,0,7000,0,66.53499421
7227,Venezuela,VEN,101,2005,26394,Zulia,1,Zulia,Zulia,0,Flood,2005-0073,2005-0073-VEN,9.931299976,-72.08522744,0,Km2,7/2/2005,76,42,25000,0,25042,50000,75.45719958
7232,Venezuela,VEN,101,2010,26395,Zulia,1,Zulia,Zulia,0,Flood,2010-0616,2010-0616-VEN,9.931299976,-72.08522744,180760,Km2,25/11/2010,41,0,94800,0,94800,170000,84.25273272
7234,Venezuela,VEN,101,2011,26396,Zulia,1,Zulia,Zulia,0,Flood,2011-0569,2011-0569-VEN,9.931299976,-72.08522744,0,Km2,1/12/2011,0,0,1668,0,1668,0,86.91246502
7235,Venezuela,VEN,101,2011,26397,Zulia,1,Zulia,Zulia,0,Flood,2011-0635,2011-0635-VEN,9.931299976,-72.08522744,0,Km2,6/12/2011,8,0,0,2000,2000,16000,86.91246502
7237,Venezuela,VEN,101,2015,26398,Zulia,1,Zulia,Zulia,0,Flood,2015-0296,2015-0296-VEN,9.931299976,-72.08522744,0,Km2,29/6/2015,0,0,45297,0,45297,0,91.57911703
4326,Morocco,MAR,600,1995,13585,Fes,2,Fes-Boulemane,Zouagha,0,Flood,1995-0196,1995-0196-MAR,34.03896499,-4.878274132,0,Km2,4/9/1995,43,0,0,0,0,0,58.87818329
01-1124,Peru,PER,135,2006,28300,Zorritos,3,Tumbes,Zorritos,0,Flood,2006-0147,2006-0147-PER,-3.915413233,-80.79199399,0,Km2,1/1/2006,0,0,15000,325,15325,0,77.89139999
6359,Turkey,TUR,640,1998,22518,Zinguldak,1,Zinguldak,Zonguldak,0,Flood,1998-0167,1998-0167-TUR,41.25208674,31.84116887,0,Km2,20/5/1998,10,47,1200000,40000,1240047,1000000,62.98350111
6365,Turkey,TUR,640,1999,22519,Zinguldak,1,Zinguldak,Zonguldak,0,Earthquake,1999-0268,1999-0268-TUR,41.25208674,31.84116887,8,Richter,17/8/1999,17127,43953,715000,600000,1358953,20000000,64.36159282
04-518,Papua New Guinea,PNG,910,2009,39799,Finschhafen,2,Morobe,Zongefifi village ,0,Landslide,2009-0211,2009-0211-PNG,-6.513619322,147.53836,0,0,26/5/2009,19,0,0,0,0,0,82.89324989
1730,Colombia,COL,100,2004,5120,Magdalena,1,Magdalena,Zona Bananera,0,Flood,2004-0520,2004-0520-COL,10.18893929,-74.26439243,0,Km2,11/10/2004,36,72,345314,0,345386,0,72.98112921
4004,Malawi,MWI,553,1989,12743,Zomba,1,Zomba,Zomba,0,Flood,1989-0008,1989-0008-MWI,-15.39869489,35.4273079,9169,Km2,14/3/1989,13,0,0,100000,100000,0,47.89849737
4010,Malawi,MWI,553,2002,12744,Zomba,1,Zomba,Zomba,0,Flood,2002-0083,2002-0083-MWI,-15.39869489,35.4273079,3860,Km2,1/1/2002,1,0,150000,0,150000,0,69.50047255
4027,Malawi,MWI,553,2012,12746,Zomba,1,Zomba,Zomba,0,Flood,2012-0598,2012-0598-MWI,-15.39869489,35.4273079,0,Km2,15/12/2012,4,0,64385,0,64385,0,88.71096898
4029,Malawi,MWI,553,2015,12747,Zomba,1,Zomba,Zomba,0,Flood,2015-0011,2015-0011-MWI,-15.39869489,35.4273079,485939,Km2,1/1/2015,278,645,638000,0,638645,390000,91.57911703
1905,Czech Republic,CZE,316,2006,5798,Znojmo,2,Jihomoravsky,Znojmo,0,Flood,2006-0156,2006-0156-CZE,48.90412579,16.12886324,0,Km2,28/3/2006,6,0,4200,0,4200,0,77.89139999
04-123,China,CHN,710,2003,38909,Ziyang,2,Sichuan,Ziyang district,0,Landslide,2003-0441,2003-0441-CHN,30.18004066,104.9526104,0,0,26/8/2003,17,0,0,0,0,0,71.07819758
1346,China,CHN,710,2000,4667,Sichuan,1,Sichuan,Ziyang,0,Flood,2000-0472,2000-0472-CHN,30.61575411,102.7099641,0,Km2,11/7/2000,203,214,0,18000,18214,172000,66.53499421
5620,Serbia,SRB,340,2010,19889,Toplicki,1,Toplicki,Zitorada,0,Flood,2010-0101,2010-0101-SRB,43.14526266,21.36693527,46900,Km2,1/3/2010,0,0,3150,0,3150,0,84.25273272
3376,Iran,IRN,630,2012,10048,Hormozgan,1,Hormozgan,Zirkooh,0,Earthquake,2012-0502,2012-0502-IRN,27.1123314,56.21993732,6,Richter,5/12/2012,6,23,5500,0,5523,0,88.71096898
6282,Togo,TGO,461,2008,22143,Zio,2,Maritime,Zio,0,Flood,2008-0291,2008-0291-TGO,6.499134586,1.085136993,66960,Km2,1/7/2008,6,79,44735,0,44814,0,83.18902296
4602,Niger,NER,436,2006,14666,Zinder,1,Zinder,Zinder,0,Flood,2006-0445,2006-0445-NER,14.98556837,10.03037009,0,Km2,3/8/2006,4,0,0,46472,46472,0,77.89139999
4603,Niger,NER,436,2007,14667,Zinder,1,Zinder,Zinder,0,Flood,2007-0389,2007-0389-NER,14.98556837,10.03037009,0,Km2,26/7/2007,7,10,57264,0,57274,0,80.11339326
4605,Niger,NER,436,2010,14668,Zinder,1,Zinder,Zinder,0,Flood,2010-0295,2010-0295-NER,14.98556837,10.03037009,0,Km2,19/7/2010,2,0,0,6615,6615,0,84.25273272
4606,Niger,NER,436,2010,14669,Zinder,1,Zinder,Zinder,0,Flood,2010-0379,2010-0379-NER,14.98556837,10.03037009,619100,Km2,1/8/2010,3,0,226611,0,226611,0,84.25273272
4609,Niger,NER,436,2012,14670,Zinder,1,Zinder,Zinder,0,Flood,2012-0302,2012-0302-NER,14.98556837,10.03037009,0,Km2,15/7/2012,91,0,530952,0,530952,184115,88.71096898
4610,Niger,NER,436,2013,14671,Zinder,1,Zinder,Zinder,0,Flood,2013-0336,2013-0336-NER,14.98556837,10.03037009,0,Km2,15/7/2013,32,0,165943,0,165943,64724,90.01044002
5652,Slovakia,SVK,317,1999,20002,Zilina,2,Zilinsky,Zilina,0,Flood,1999-0233,1999-0233-SVK,49.17275819,18.77039701,1157,Km2,22/6/1999,2,0,35207,941,36148,113300,64.36159282
04-653,Turkey,TUR,640,2009,40063,Torul,2,Gumushane,Zigana area ,0,Landslide,2009-0054,2009-0054-TUR,40.49509076,39.21107125,0,0,25/1/2009,11,0,6,0,6,0,82.89324989
4727,Pakistan,PAK,770,2003,15272,Ziarat,3,Baluchistan,Ziarat,0,Flood,2003-0359,2003-0359-PAK,30.42573003,67.55164056,3079,Km2,22/7/2003,230,456,1265767,0,1266223,0,71.07819758
4753,Pakistan,PAK,770,2008,15273,Ziarat,3,Baluchistan,Ziarat,0,Earthquake,2008-0500,2008-0500-PAK,30.42573003,67.55164056,6,Richter,28/10/2008,166,320,75000,0,75320,10000,83.18902296
1485,China,CHN,710,2006,3962,Gansu,1,Gansu,Zhuoni,0,Flood,2006-0481,2006-0481-CHN,37.82078887,100.9338739,16920,Km2,30/8/2006,15,0,0,0,0,0,77.89139999
04-143,China,CHN,710,2010,38970,Zhugqu,3,Gansu,Zhouqu Xian area ,0,Landslide,2010-0377,2010-0377-CHN,33.66221765,104.3141134,0,0,7/8/2010,1765,200,47000,0,47200,759000,84.25273272
04-134,China,CHN,710,2009,38943,Zhongyang,3,Shanxi,Zhongyang Xiang area ,0,Landslide,2009-0500,2009-0500-CHN,37.25656774,111.1738308,0,0,17/11/2009,23,0,0,0,0,0,82.89324989
04-150,China,CHN,710,2013,38990,Chengdu,2,Sichuan,Zhongxing village ,0,Landslide,2013-0245,2013-0245-CHN,30.66543905,103.8454299,0,0,10/7/2013,17,0,0,0,0,0,90.01044002
4727,Pakistan,PAK,770,2003,15270,Zhob,2,Baluchistan,Zhob,0,Flood,2003-0359,2003-0359-PAK,30.87933957,68.96767189,3079,Km2,22/7/2003,230,456,1265767,0,1266223,0,71.07819758
6461,Ukraine,UKR,369,2005,22720,Zhytomyrs'ka,2,Zhytomyr,Zhitomir,0,Flood,2005-0146,2005-0146-UKR,50.27496421,28.68843207,0,Km2,28/2/2005,0,0,8340,0,8340,0,75.45719958
654,Belarus,BLR,370,1993,2343,Zhytkavichy,2,Homyel',Zhitkovichi,0,Flood,1993-0047,1993-0047-BLR,52.25136791,27.7961657,2300,Km2,25/7/1993,0,0,40000,0,40000,100000,55.8161073
04-113,China,CHN,710,2001,38879,Zhenyuan Yi; Hani And Lahu,3,Yunnan,Zhenyuan Yi-Hani-Lahu Zizhi area ,0,Landslide,2001-0768,2001-0768-CHN,23.94644911,100.9724235,0,0,28/7/2001,16,0,0,0,0,0,68.41537906
Jun-51,China,CHN,710,2015,44782,Zhenkang,3,Yunnan,Zhenkang Xian,0,Earthquake,2015-0125,2015-0125-CHN,23.89960057,98.99999827,5,Richter,1/3/2015,0,32,0,2000,2032,15000,91.57911703
04-147,China,CHN,710,2012,38980,Kunming,2,Yunnan,Zhenhe village  ,0,Landslide,2012-0455,2012-0455-CHN,25.38710811,102.8750874,0,0,5/10/2012,19,0,0,0,0,0,88.71096898
1248,China,CHN,710,1993,4879,Zhejiang,1,Zhejiang,Zhejiang province,0,Flood,1993-0251,1993-0251-CHN,29.17951244,120.0888388,0,Km2,3/10/1993,59,0,0,0,0,0,55.8161073
1329,China,CHN,710,1999,4890,Zhejiang,1,Zhejiang,Zhejiang Province,0,Flood,1999-0645,1999-0645-CHN,29.17951244,120.0888388,0,Km2,6/9/1999,153,0,4920000,245000,5165000,647000,64.36159282
1193,China,CHN,710,1989,4871,Zhejiang,1,Zhejiang,Zhejiang,0,Flood,1989-0087,1989-0087-CHN,29.17951244,120.0888388,0,Km2,14/7/1989,2000,10000,100000000,0,100010000,2789000,47.89849737
1229,China,CHN,710,1992,4876,Zhejiang,1,Zhejiang,Zhejiang,0,Flood,1992-0217,1992-0217-CHN,29.17951244,120.0888388,393000,Km2,29/6/1992,35,0,0,5000,5000,76000,54.21584465
1254,China,CHN,710,1994,4880,Zhejiang,1,Zhejiang,Zhejiang,0,Flood,1994-0065,1994-0065-CHN,29.17951244,120.0888388,0,Km2,9/6/1994,1001,14400,73360000,5600000,78974400,5460000,57.27148263
1266,China,CHN,710,1995,4883,Zhejiang,1,Zhejiang,Zhejiang,0,Flood,1995-0139,1995-0139-CHN,29.17951244,120.0888388,1668000,Km2,15/5/1995,1437,70249,114400000,0,114470249,6720000,58.87818329
1279,China,CHN,710,1996,4885,Zhejiang,1,Zhejiang,Zhejiang,0,Flood,1996-0103,1996-0103-CHN,29.17951244,120.0888388,0,Km2,30/6/1996,2775,234000,150000000,4400000,154634000,12600000,60.60402838
1323,China,CHN,710,1999,4888,Zhejiang,1,Zhejiang,Zhejiang,0,Flood,1999-0191,1999-0191-CHN,29.17951244,120.0888388,41000,Km2,23/6/1999,725,24000,100000000,1000000,101024000,8100000,64.36159282
1397,China,CHN,710,2003,4897,Zhejiang,1,Zhejiang,Zhejiang,0,Flood,2003-0315,2003-0315-CHN,29.17951244,120.0888388,1287000,Km2,23/6/2003,430,146000,150000000,0,150146000,7890000,71.07819758
1552,China,CHN,710,2010,4914,Zhejiang,1,Zhejiang,Zhejiang,0,Flood,2010-0239,2010-0239-CHN,29.17951244,120.0888388,0,Km2,29/5/2010,1691,0,134000000,0,134000000,18000000,84.25273272
1565,China,CHN,710,2011,4916,Zhejiang,1,Zhejiang,Zhejiang,0,Flood,2011-0227,2011-0227-CHN,29.17951244,120.0888388,431896,Km2,1/6/2011,467,0,67900000,0,67900000,6400000,86.91246502
1650,China,CHN,710,2014,4923,Zhejiang,1,Zhejiang,Zhejiang,0,Flood,2014-0217,2014-0217-CHN,29.17951244,120.0888388,0,Km2,25/6/2014,24,0,150000,0,150000,483000,91.47061409
01-335,China,CHN,710,1988,29397,Zhejiang,1,Zhejiang,Zhejiang,0,Flood,1988-0148,1988-0148-CHN,29.17951244,120.0888388,0,Km2,1/4/1988,577,200,22000000,0,22000200,1063564,45.69289676
04-102,China,CHN,710,1995,38852,Zhejiang,1,Zhejiang,Zhejiang,0,Landslide,1995-0322,1995-0322-CHN,29.17951244,120.0888388,0,0,9/10/1995,37,0,0,0,0,0,58.87818329
1296,China,CHN,710,1997,4886,Zhejiang,1,Zhejiang,Zheijiang,0,Flood,1997-0558,1997-0558-CHN,29.17951244,120.0888388,0,Km2,30/6/1997,420,0,0,0,0,1251200,62.02075732
1442,China,CHN,710,2005,4900,Zhejiang,1,Zhejiang,Zheijiang,0,Flood,2005-0344,2005-0344-CHN,29.17951244,120.0888388,226600,Km2,19/6/2005,235,0,16700000,0,16700000,2160000,75.45719958
1512,China,CHN,710,2008,4910,Zhejiang,1,Zhejiang,Zheijiang,0,Flood,2008-0243,2008-0243-CHN,29.17951244,120.0888388,366860,Km2,7/6/2008,176,0,1600000,0,1600000,2200000,83.18902296
1534,China,CHN,710,2009,4912,Zhejiang,1,Zhejiang,Zheijiang,0,Flood,2009-0292,2009-0292-CHN,29.17951244,120.0888388,542100,Km2,1/7/2009,90,0,39372000,0,39372000,1000000,82.89324989
1583,China,CHN,710,2012,4918,Zhejiang,1,Zhejiang,Zheijiang,0,Flood,2012-0173,2012-0173-CHN,29.17951244,120.0888388,2643786,Km2,22/6/2012,91,0,17440000,0,17440000,1200000,88.71096898
1257,China,CHN,710,1994,4881,Zhejiang,1,Zhejiang,Zheijang,0,Flood,1994-0066,1994-0066-CHN,29.17951244,120.0888388,1015000,Km2,11/7/1994,258,7665,30540000,0,30547665,1810000,57.27148263
1294,China,CHN,710,1997,4802,Yunnan,1,Yunnan,Zhaotong prefecture,0,Flood,1997-0562,1997-0562-CHN,24.97571744,101.4898344,29000,Km2,3/6/1997,40,0,0,0,0,1000,62.02075732
1409,China,CHN,710,2003,4816,Yunnan,1,Yunnan,Zhaotong,0,Earthquake,2003-0547,2003-0547-CHN,24.97571744,101.4898344,6,Richter,14/11/2003,4,65,490000,3000,493065,0,71.07819758
1528,China,CHN,710,2009,4763,Xinjiang Uygur,1,Xinjiang Uygur,Zhaosu,0,Earthquake,2009-0059,2009-0059-CHN,41.11196232,85.20363342,5,Richter,25/1/2009,0,0,4549,0,4549,3100,82.89324989
3720,Kazakhstan,KAZ,705,2005,11777,Zhanakorganskiy,2,Qyzylorda,Zhanakorgan,0,Flood,2005-0116,2005-0116-KAZ,43.46205893,67.20372479,0,Km2,24/2/2005,0,0,25000,0,25000,7662,75.45719958
3719,Kazakhstan,KAZ,705,2003,11776,Zhambyl,1,Zhambyl,Zhambyl province,0,Earthquake,2003-0259,2003-0259-KAZ,44.29304016,72.20099325,6,Richter,23/5/2003,3,626,36000,0,36626,0,71.07819758
01-366,China,CHN,710,2005,29480,Liaoning,1,Liaoning,Zhalanyingzi ,0,Flood,2005-0307,2005-0307-CHN,41.2989153,122.6076547,2330,Km2,10/6/2005,117,25,400,0,425,45000,75.45719958
3720,Kazakhstan,KAZ,705,2005,11775,Zhalagashskiy,2,Qyzylorda,Zhalagash,0,Flood,2005-0116,2005-0116-KAZ,44.95282269,64.24984879,0,Km2,24/2/2005,0,0,25000,0,25000,7662,75.45719958
5559,Russia,RUS,365,2013,19614,Zeya,2,Amur,Zeya district,0,Flood,2013-0278,2013-0278-RUS,53.77159119,127.1483045,102479,Km2,1/8/2013,0,0,34135,0,34135,1000000,90.01044002
765,Bosnia And Herzegovina,BIH,346,2014,2663,Zenica-Doboj,2,Federacija Bosna I Hercegovina,Zepce,0,Flood,2014-0306,2014-0306-BIH,44.29031327,18.16369442,0,Km2,6/8/2014,1,0,600,0,600,0,91.47061409
764,Bosnia And Herzegovina,BIH,346,2014,2658,Zenica,3,Federacija Bosna I Hercegovina,Zenica,0,Flood,2014-0164,2014-0164-BIH,44.27346664,17.91054297,0,Km2,13/5/2014,25,0,1000000,0,1000000,436580,91.47061409
145,Algeria,DZA,615,2003,650,Zemmouri,2,Boumerdes,Zemmouri,0,Earthquake,2003-0245,2003-0245-DZA,36.78554568,3.603563449,7,Richter,21/5/2003,2266,10261,0,200000,210261,5000000,71.07819758
139,Algeria,DZA,615,2001,649,Zemmouri,2,Boumerdes,Zemmouri,0,Flood,2001-0620,2001-0620-DZA,36.78554568,3.603563449,970,Km2,10/11/2001,921,423,45000,0,45423,300000,68.41537906
146,Algeria,DZA,615,2003,651,Zemmouri,2,Boumerdes,Zemmouri,0,Earthquake,2003-0255,2003-0255-DZA,36.78554568,3.603563449,6,Richter,27/5/2003,9,200,0,0,200,0,71.07819758
3723,Kazakhstan,KAZ,705,2011,11774,Zelenovskiy,2,West Kazakhstan,Zelenov,0,Flood,2011-0178,2011-0178-KAZ,51.30110293,51.20868155,213195,Km2,9/4/2011,2,0,12238,3762,16000,67000,86.91246502
139,Algeria,DZA,615,2001,648,Zeboudja,2,Chlef,Zeboudja,0,Flood,2001-0620,2001-0620-DZA,36.38242933,1.468400171,970,Km2,10/11/2001,921,423,45000,0,45423,300000,68.41537906
17-Apr,Afghanistan,AFG,700,2013,39035,Zebak,2,Badakhshan,Zebak district ,0,Landslide,2013-0414,2013-0414-AFG,36.3110983,71.28523376,0,0,10/9/2013,24,0,1000,0,1000,0,90.01044002
1833,Croatia,HRV,344,2001,5580,Zdenci,2,Viroviticko-Podravska,Zdenci,0,Flood,2001-0739,2001-0739-HRV,45.61557904,17.96318969,100,Km2,6/9/2001,0,0,1200,0,1200,0,68.41537906
3722,Kazakhstan,KAZ,705,2010,11773,Zaysanskiy,2,East Kazakhstan,Zaysan,0,Flood,2010-0291,2010-0291-KAZ,47.40983536,84.9611281,0,Km2,17/3/2010,0,0,8000,5000,13000,0,84.25273272
3923,Libya,LBY,620,2013,12152,Az Zawiyah,1,Az Zawiyah,Zawiya,0,Flood,2013-0546,2013-0546-LBY,32.47367973,12.5683483,0,Km2,30/11/2013,16,0,2000,0,2000,0,90.01044002
6467,Ukraine,UKR,369,2010,22718,Zastavnets'kyi,2,Chernivtsi,Zastavna,0,Flood,2010-0275,2010-0275-UKR,48.53759389,25.89073086,34500,Km2,27/6/2010,6,59,40000,0,40059,1900,84.25273272
1731,Colombia,COL,100,2004,5316,Zarzal,2,Valle Del Cauca,Zarzal,0,Earthquake,2004-0575,2004-0575-COL,4.35860083,-76.09545013,7,Richter,15/11/2004,0,20,8016,0,8036,0,72.98112921
02-514,Peru,PER,135,2017,33194,Zarumilla,2,Tumbes,Zarumilla and Tumbes provinces,0,Flood,2017-0084,2017-0084-PER,-3.658708172,-80.25406708,810942,Km2,15/3/2017,184,505,1800000,0,1800505,3100000,94.70984073
4912,Peru,PER,135,2002,15757,Zarumilla,2,Tumbes,Zarumilla,0,Flood,2002-0187,2002-0187-PER,-3.657125524,-80.25541282,13770,Km2,17/3/2002,13,14,2155,0,2169,0,69.50047255
3710,Jordan,JOR,663,1987,11737,Zarqa,1,Zarqa,Zarqa,0,Flood,1987-0194,1987-0194-JOR,31.81595616,36.85073498,0,Km2,16/10/1987,9,29,0,0,29,0,43.90266239
6143,Tajikistan,TJK,702,2015,21269,Rudaki,2,Tadzhikistan Territories,Zarkamar,0,Flood,2015-0194,2015-0194-TJK,38.5681759,68.76440118,32595,Km2,11/5/2015,0,0,5401,0,5401,0,91.57911703
410,Azerbaijan,AZE,373,2003,1501,Zerdab,2,Aran,Zardab,0,Flood,2003-0212,2003-0212-AZE,40.23039981,47.69478149,30870,Km2,16/4/2003,0,0,30000,1500,31500,55000,71.07819758
3349,Iran,IRN,630,2005,10291,Zarand,2,Kerman,Zarand region,0,Earthquake,2005-0092,2005-0092-IRN,30.52364402,55.83418903,6,Richter,22/2/2005,612,1411,93355,0,94766,80000,75.45719958
3358,Iran,IRN,630,2006,10292,Zarand,2,Kerman,Zarand,0,Earthquake,2006-0239,2006-0239-IRN,30.52364402,55.83418903,5,Richter,7/5/2006,0,70,0,0,70,0,77.89139999
4235,Mexico,MEX,70,2004,13449,Zaragoza,2,Coahuila,Zaragoza,0,Flood,2004-0141,2004-0141-MEX,28.70965127,-101.4546893,0,Km2,4/4/2004,37,40,3700,0,3740,0,72.98112921
5841,Spain,ESP,230,2000,20520,Zaragoza,2,Aragon,Zaragoza,0,Flood,2000-0699,2000-0699-ESP,42.4466261,-1.114269784,26690,Km2,20/10/2000,8,0,500,0,500,75000,66.53499421
413,Azerbaijan,AZE,373,2012,1500,Zaqatala,2,Shaki-Zaqatala,Zaqatala,0,Earthquake,2012-0191,2012-0191-AZE,41.58892772,46.68784878,6,Richter,7/5/2012,0,50,15500,0,15550,0,88.71096898
05-271,Ecuador,ECU,130,2013,40826,Zapotillo,2,Loja,Zapotillo,0,Drought,2013-9308,2013-9308-ECU,-4.223307529,-80.32377343,0,Km2,1/2/2013,0,0,3165,0,3165,0,90.01044002
6461,Ukraine,UKR,369,2005,22717,Zaporiz'ka,2,Zaporizhzhya,Zaporozhye,0,Flood,2005-0146,2005-0146-UKR,47.82373889,35.16449408,0,Km2,28/2/2005,0,0,8340,0,8340,0,75.45719958
3716,Kazakhstan,KAZ,705,1993,11771,West Kazakhstan,1,West Kazakhstan,Zapadna-Kazakhstanskaya,0,Flood,1993-0037,1993-0037-KAZ,49.79218183,50.68509282,213200,Km2,26/5/1993,10,0,30000,0,30000,36532,55.8161073
3251,Iran,IRN,630,1983,10283,Zanjan,1,Zanjan,Zanjan,0,Earthquake,1983-0432,1983-0432-IRN,36.52367723,48.35945942,6,Richter,22/7/1983,3,41,0,375,416,5000,38.4836513
3270,Iran,IRN,630,1990,10284,Zanjan,1,Zanjan,Zanjan,0,Earthquake,1990-0034,1990-0034-IRN,36.52367723,48.35945942,7,Richter,21/6/1990,40000,105000,500000,105000,710000,8000000,50.48403227
3293,Iran,IRN,630,1994,10285,Zanjan,1,Zanjan,Zanjan,0,Flood,1994-0511,1994-0511-IRN,36.52367723,48.35945942,271200,Km2,14/11/1994,12,0,75000,0,75000,142000,57.27148263
3314,Iran,IRN,630,1999,10286,Zanjan,1,Zanjan,Zanjan,0,Flood,1999-0235,1999-0235-IRN,36.52367723,48.35945942,50100,Km2,15/7/1999,51,100,20000,0,20100,43000,64.36159282
3316,Iran,IRN,630,1999,10287,Zanjan,1,Zanjan,Zanjan,0,Flood,1999-0275,1999-0275-IRN,36.52367723,48.35945942,0,Km2,21/8/1999,22,11,0,0,11,0,64.36159282
3383,Iran,IRN,630,2015,10289,Zanjan,1,Zanjan,Zanjan,0,Flood,2015-0258,2015-0258-IRN,36.52367723,48.35945942,776608,Km2,14/7/2015,23,30,4000,0,4030,0,91.57911703
01-181,Benin,BEN,434,1991,29072,Zagnanado,2,Zou,Zangnanado,0,Flood,1991-0169,1991-0169-BEN,7.271737483,2.392938633,100,Km2,1/6/1991,3,0,0,0,0,0,52.62202002
1319,China,CHN,710,1999,4233,Hebei,1,Hebei,Zangbei,0,Earthquake,1999-0383,1999-0383-CHN,39.54672665,116.1309498,5,Richter,11/3/1999,0,3,15000,1000,16003,0,64.36159282
914,Burkina Faso,BFA,439,2007,3228,Zondoma,2,Nord,Zandoma,0,Flood,2007-0305,2007-0305-BFA,13.19500572,-2.376514622,2435,Km2,26/7/2007,52,73,92970,28000,121043,0,80.11339326
02-605,Sudan,SDN,625,2017,33813,El Fashir,3,North Darfur,Zamzam camp in the state capital of El Fasher,0,Flood,2017-0573,2017-0573-SDN,13.68154301,25.39991852,0,Km2,30/6/2017,25,112,29935,25600,55647,0,94.70984073
2018,Ecuador,ECU,130,2001,6151,Zamora Chinchipe,1,Zamora Chinchipe,Zamora-Chinchipe,0,Flood,2001-0252,2001-0252-ECU,-4.169428691,-78.90230357,0,Km2,11/6/2001,47,30,8300,0,8330,0,68.41537906
04-219,Ecuador,ECU,130,1993,39117,Zamora,2,Zamora Chinchipe,Zamora province,0,Landslide,1993-0013,1993-0013-ECU,-4.012155988,-78.98280173,0,0,9/5/1993,250,45,0,0,45,0,55.8161073
2010,Ecuador,ECU,130,1992,6149,Zamora,2,Zamora Chinchipe,Zamora,0,Flood,1992-0024,1992-0024-ECU,-3.985881015,-78.9153804,550,Km2,24/3/1992,22,0,125000,80000,205000,20000,54.21584465
2014,Ecuador,ECU,130,1997,6150,Zamora,2,Zamora Chinchipe,Zamora,0,Flood,1997-0092,1997-0092-ECU,-3.985881015,-78.9153804,10,Km2,9/3/1997,27,0,11907,2009,13916,0,62.02075732
4621,Nigeria,NGA,475,2000,14803,Zamfara,1,Zamfara,Zamfara state,0,Flood,2000-0547,2000-0547-NGA,12.08786821,6.260933842,100,Km2,15/8/2000,0,0,0,750,750,1900,66.53499421
4635,Nigeria,NGA,475,2006,14805,Zamfara,1,Zamfara,Zamfara state,0,Flood,2006-0445,2006-0445-NGA,12.08786821,6.260933842,0,Km2,3/8/2006,0,0,0,10000,10000,0,77.89139999
4640,Nigeria,NGA,475,2009,14807,Zamfara,1,Zamfara,Zamfara,0,Flood,2009-0375,2009-0375-NGA,12.08786821,6.260933842,64200,Km2,10/9/2009,0,0,150000,0,150000,0,82.89324989
5171,Philippines,PHL,840,2001,19042,Zamboanga Sibugay,1,Zamboanga Sibugay,Zamboanga Sibugay,0,Flood,2001-0445,2001-0445-PHL,7.677798845,122.7134136,31880,Km2,12/8/2001,37,0,79000,0,79000,8000,68.41537906
5327,Philippines,PHL,840,2012,19023,Zamboanga Del Norte,1,Zamboanga Del Norte,Zamboanga Peninsula,0,Flood,2012-0602,2012-0602-PHL,8.052569827,122.813022,0,Km2,12/6/2012,29,2,0,30927,30929,1000,88.71096898
5344,Philippines,PHL,840,2013,19027,Zamboanga Del Norte,1,Zamboanga Del Norte,Zamboanga Peninsula,0,Flood,2013-0340,2013-0340-PHL,8.052569827,122.813022,0,Km2,1/8/2013,11,21,100000,0,100021,36000,90.01044002
5349,Philippines,PHL,840,2013,19028,Zamboanga Del Norte,1,Zamboanga Del Norte,Zamboanga Peninsula,0,Flood,2013-0434,2013-0434-PHL,8.052569827,122.813022,0,Km2,4/10/2013,20,0,207971,0,207971,1988,90.01044002
5327,Philippines,PHL,840,2012,19037,Zamboanga Del Sur,1,Zamboanga Del Sur,Zamboanga Peninsula,0,Flood,2012-0602,2012-0602-PHL,7.673516791,122.9928594,0,Km2,12/6/2012,29,2,0,30927,30929,1000,88.71096898
5327,Philippines,PHL,840,2012,19046,Zamboanga Sibugay,1,Zamboanga Sibugay,Zamboanga Peninsula,0,Flood,2012-0602,2012-0602-PHL,7.677798845,122.7134136,0,Km2,12/6/2012,29,2,0,30927,30929,1000,88.71096898
5344,Philippines,PHL,840,2013,19039,Zamboanga Del Sur,1,Zamboanga Del Sur,Zamboanga Peninsula,0,Flood,2013-0340,2013-0340-PHL,7.673516791,122.9928594,0,Km2,1/8/2013,11,21,100000,0,100021,36000,90.01044002
5344,Philippines,PHL,840,2013,19048,Zamboanga Sibugay,1,Zamboanga Sibugay,Zamboanga Peninsula,0,Flood,2013-0340,2013-0340-PHL,7.677798845,122.7134136,0,Km2,1/8/2013,11,21,100000,0,100021,36000,90.01044002
5349,Philippines,PHL,840,2013,19040,Zamboanga Del Sur,1,Zamboanga Del Sur,Zamboanga Peninsula,0,Flood,2013-0434,2013-0434-PHL,7.673516791,122.9928594,0,Km2,4/10/2013,20,0,207971,0,207971,1988,90.01044002
5349,Philippines,PHL,840,2013,19049,Zamboanga Sibugay,1,Zamboanga Sibugay,Zamboanga Peninsula,0,Flood,2013-0434,2013-0434-PHL,7.677798845,122.7134136,0,Km2,4/10/2013,20,0,207971,0,207971,1988,90.01044002
5171,Philippines,PHL,840,2001,19030,Zamboanga Del Sur,1,Zamboanga Del Sur,Zamboanga del Sur,0,Flood,2001-0445,2001-0445-PHL,7.673516791,122.9928594,31880,Km2,12/8/2001,37,0,79000,0,79000,8000,68.41537906
5171,Philippines,PHL,840,2001,19019,Zamboanga Del Norte,1,Zamboanga Del Norte,Zamboanga del Norte,0,Flood,2001-0445,2001-0445-PHL,8.052569827,122.813022,31880,Km2,12/8/2001,37,0,79000,0,79000,8000,68.41537906
5237,Philippines,PHL,840,2007,19020,Zamboanga Del Norte,1,Zamboanga Del Norte,Zamboanga del Norte,0,Flood,2007-0577,2007-0577-PHL,8.052569827,122.813022,0,Km2,28/11/2007,0,0,33571,0,33571,0,80.11339326
5287,Philippines,PHL,840,2010,19016,Zamboanga City,2,Zamboanga Del Sur,Zamboanga city,0,Flood,2010-0398,2010-0398-PHL,7.147666364,122.1426801,0,Km2,15/8/2010,0,0,505,0,505,0,84.25273272
5304,Philippines,PHL,840,2011,19017,Zamboanga City,2,Zamboanga Del Sur,Zamboanga city,0,Flood,2011-0588,2011-0588-PHL,7.147666364,122.1426801,0,Km2,20/7/2011,0,0,469,0,469,0,86.91246502
5080,Philippines,PHL,840,1990,19012,Zamboanga City,2,Zamboanga Del Sur,Zamboanga city,0,Flood,1990-0027,1990-0027-PHL,7.147666364,122.1426801,3620,Km2,17/6/1990,98,0,236,0,236,43,50.48403227
5174,Philippines,PHL,840,2001,19013,Zamboanga City,2,Zamboanga Del Sur,Zamboanga city,0,Flood,2001-0596,2001-0596-PHL,7.147666364,122.1426801,190,Km2,10/10/2001,4,0,300,0,300,0,68.41537906
4358,Mozambique,MOZ,541,1997,13893,Zambezia,1,Zambezia,Zambezia,0,Flood,1997-0026,1997-0026-MOZ,-16.65133304,36.98316268,0,Km2,15/1/1997,35,0,400000,0,400000,0,62.02075732
7465,Zambia,ZMB,551,2004,27138,Zambezi,2,North-Western,Zambezi,0,Flood,2004-0159,2004-0159-ZMB,-13.57810881,23.07888158,0,Km2,1/2/2004,2,13,196385,0,196398,0,72.98112921
4360,Mozambique,MOZ,541,1999,13894,Zambezia,1,Zambezia,Zambezi,0,Flood,1999-0071,1999-0071-MOZ,-16.65133304,36.98316268,700,Km2,15/1/1999,23,0,70000,0,70000,12400,64.36159282
4390,Mozambique,MOZ,541,2015,13908,Zambezia,1,Zambezia,Zambeze,0,Flood,2015-0011,2015-0011-MOZ,-16.65133304,36.98316268,0,Km2,1/1/2015,160,0,177645,0,177645,0,91.57911703
5113,Philippines,PHL,840,1994,18967,Zambales,1,Zambales,Zambales,0,Flood,1994-0168,1994-0168-PHL,15.2875002,120.1438133,0,Km2,22/6/1994,50,0,757000,17000,774000,1650,57.27148263
5303,Philippines,PHL,840,2011,18998,Zambales,1,Zambales,Zambales,0,Flood,2011-0221,2011-0221-PHL,15.2875002,120.1438133,6361,Km2,28/6/2011,31,0,121005,0,121005,251,86.91246502
5329,Philippines,PHL,840,2012,19002,Zambales,1,Zambales,Zambales,0,Flood,2012-0272,2012-0272-PHL,15.2875002,120.1438133,0,Km2,6/8/2012,112,14,4451711,0,4451725,72330,88.71096898
07-255,Sudan,SDN,625,2018,45071,Zalingei,3,Central Darfur,Zalingei ,0,Flood,2018-0221,2018-0221-SDN,12.888133,23.38914515,210194,Km2,18/6/2018,0,0,350,2400,2750,0,97.02312922
2632,Hungary,HUN,310,2014,7666,Zala,1,Zala,Zala,0,Flood,2014-0326,2014-0326-HUN,46.69125308,16.90391308,0,Km2,14/9/2014,0,0,6500,0,6500,0,91.47061409
610,Bangladesh,BGD,771,2006,2299,Zakiganj,3,Sylhet,Zakiganj,0,Flood,2006-0262,2006-0262-BGD,24.92887963,92.37380049,0,Km2,31/5/2006,0,0,76000,0,76000,0,77.89139999
516,Bangladesh,BGD,771,1993,2298,Zakiganj,3,Sylhet,Zakiganj,0,Flood,1993-0028,1993-0028-BGD,24.92887963,92.37380049,607,Km2,4/6/1993,28,0,3207056,0,3207056,0,55.8161073
406,Azerbaijan,AZE,373,1997,1497,Zaqatala,2,Shaki-Zaqatala,Zakatali,0,Flood,1997-0140,1997-0140-AZE,41.58963493,46.68855289,0,Km2,5/6/1997,11,0,75000,0,75000,25000,62.02075732
6459,Ukraine,UKR,369,2001,22708,Transcarpathia,1,Transcarpathia,Zakarpatian Oblast,0,Flood,2001-0096,2001-0096-UKR,48.40491454,23.28129631,0,Km2,4/3/2001,9,0,300000,0,300000,15000,68.41537906
5620,Serbia,SRB,340,2010,19897,Zajecarski,1,Zajecarski,Zajecar,0,Flood,2010-0101,2010-0101-SRB,43.73236553,22.13504575,46900,Km2,1/3/2010,0,0,3150,0,3150,0,84.25273272
5626,Serbia,SRB,340,2014,19902,Zlatiborski,1,Zlatiborski,Zajecar,0,Flood,2014-0128,2014-0128-SRB,43.73236553,22.13504575,0,Km2,16/4/2014,0,0,3000,0,3000,0,91.47061409
182,Angola,AGO,540,2005,775,Zaire,1,Zaire,Zaire,0,Flood,2005-0137,2005-0137-AGO,-6.607559656,13.56282959,118200,Km2,27/1/2005,0,0,0,10000,10000,0,75.45719958
191,Angola,AGO,540,2010,776,Zaire,1,Zaire,Zaire,0,Flood,2010-0553,2010-0553-AGO,-6.607559656,13.56282959,0,Km2,15/10/2010,18,20,0,3875,3895,0,84.25273272
5626,Serbia,SRB,340,2014,19828,Branicevski,1,Branicevski,Zagubica,0,Flood,2014-0128,2014-0128-SRB,44.4509748,21.52612086,0,Km2,16/4/2014,0,0,3000,0,3000,0,91.47061409
1837,Croatia,HRV,344,2012,5558,Grad Zagreb,1,Grad Zagreb,Zagreb,0,Flood,2012-0551,2012-0551-HRV,45.74219578,16.00811611,0,Km2,5/11/2012,0,0,1500,0,1500,0,88.71096898
4345,Morocco,MAR,600,2010,13645,Zagora,2,Souss-Massa-Draa,Zagoura,0,Flood,2010-0613,2010-0613-MAR,30.80212251,-5.693686025,180760,Km2,25/11/2010,32,3,75000,0,75003,29000,84.25273272
712,Benin,BEN,434,1996,2424,Zagnanado,2,Zou,Zagnanado,0,Flood,1996-0230,1996-0230-BEN,7.269502193,2.39215715,21,Km2,29/9/1996,11,0,147901,826,148727,0,60.60402838
414,Azerbaijan,AZE,373,2012,1498,Zaqatala,2,Shaki-Zaqatala,Zagatala,0,Earthquake,2012-0545,2012-0545-AZE,41.58963493,46.68855289,5,Richter,18/5/2012,0,0,0,6949,6949,0,88.71096898
3468,Italy,ITA,325,2002,10560,Zafferana Etnea,3,Sicily,Zafferana Etnea,0,Earthquake,2002-0680,2002-0680-ITA,37.71079934,15.06350598,4,Richter,29/10/2002,0,9,0,1000,1009,0,69.50047255
05-480,Italy,ITA,325,1991,41784,Catania,2,Sicily,Zafferana,0,Volcanic Activity,1991-0759,1991-0759-ITA,37.51346996,14.83012172,0,0,15/12/1991,0,0,7000,0,7000,0,52.62202002
4212,Mexico,MEX,70,2000,13445,Zacatecas,1,Zacatecas,Zacatecas,0,Flood,2000-0276,2000-0276-MEX,23.26559606,-102.7098197,0,Km2,13/5/2000,14,0,0,0,0,0,66.53499421
4224,Mexico,MEX,70,2002,13446,Zacatecas,1,Zacatecas,Zacatecas,0,Flood,2002-0510,2002-0510-MEX,23.26559606,-102.7098197,1000,Km2,15/8/2002,27,0,7000,0,7000,0,69.50047255
4233,Mexico,MEX,70,2003,13447,Zacatecas,1,Zacatecas,Zacatecas,0,Flood,2003-0482,2003-0482-MEX,23.26559606,-102.7098197,0,Km2,6/9/2003,2,0,50000,0,50000,0,71.07819758
4254,Mexico,MEX,70,2008,13448,Zacatecas,1,Zacatecas,Zacatecas,0,Flood,2008-0288,2008-0288-MEX,23.26559606,-102.7098197,193700,Km2,6/7/2008,12,0,20000,0,20000,0,83.18902296
2446,Guatemala,GTM,90,1999,7201,Zacapa,1,Zacapa,Zacapa,0,Flood,1999-0361,1999-0361-GTM,15.03576263,-89.50635469,0,Km2,1/9/1999,12,0,2283,3740,6023,1000,64.36159282
2447,Guatemala,GTM,90,2000,7202,Zacapa,1,Zacapa,Zacapa,0,Flood,2000-0299,2000-0299-GTM,15.03576263,-89.50635469,11600,Km2,6/6/2000,16,24,2500,0,2524,0,66.53499421
2448,Guatemala,GTM,90,2000,7203,Zacapa,1,Zacapa,Zacapa,0,Flood,2000-0609,2000-0609-GTM,15.03576263,-89.50635469,13970,Km2,15/9/2000,20,12,200,250,462,0,66.53499421
2458,Guatemala,GTM,90,2008,7205,Zacapa,1,Zacapa,Zacapa,0,Flood,2008-0268,2008-0268-GTM,15.03576263,-89.50635469,0,Km2,2/7/2008,27,0,17300,0,17300,0,83.18902296
2464,Guatemala,GTM,90,2010,7208,Zacapa,1,Zacapa,Zacapa,0,Flood,2010-0442,2010-0442-GTM,15.03576263,-89.50635469,0,Km2,27/8/2010,0,0,3270,0,3270,0,84.25273272
2369,Ghana,GHA,452,2013,6939,Zabzugu Tatale,2,Northern,Zabzugu,0,Flood,2013-0122,2013-0122-GHA,9.173273595,0.373505088,0,Km2,3/3/2013,5,0,25000,0,25000,0,90.01044002
6,Afghanistan,AFG,700,1991,343,Zabul,1,Zabul,Zabul,0,Flood,1991-0032,1991-0032-AFG,32.23524188,67.10610804,0,Km2,6/2/1991,415,0,100000,8400,108400,60000,52.62202002
18,Afghanistan,AFG,700,1996,344,Zabul,1,Zabul,Zabul,0,Flood,1996-0072,1996-0072-AFG,32.23524188,67.10610804,9,Km2,9/4/1996,70,0,9855,0,9855,0,60.60402838
23,Afghanistan,AFG,700,1998,345,Zabul,1,Zabul,Zabul,0,Flood,1998-0054,1998-0054-AFG,32.23524188,67.10610804,0,Km2,20/2/1998,30,300,0,0,300,0,62.98350111
3267,Iran,IRN,630,1989,10281,Zabol,2,Sistan And Baluchestan,Zabol,0,Flood,1989-0041,1989-0041-IRN,30.90451379,61.3757723,0,Km2,4/4/1989,0,0,150000,0,150000,2000,47.89849737
4317,Montenegro,MNE,341,2009,13556,Zabljak,1,Zabljak,Zabljak,0,Flood,2009-0607,2009-0607-MNE,43.10137753,19.19568608,0,Km2,25/12/2009,0,0,450,0,450,0,82.89324989
5510,Russia,RUS,365,2000,19613,Zabaykal'ye,1,Zabaykal'ye,Zabaykalsky,0,Flood,2000-0278,2000-0278-RUS,52.83976307,116.1965031,0,Km2,13/5/2000,0,0,1200,0,1200,0,66.53499421
2217,France,FRA,220,2000,6690,Yvelines,2,Ile-de-France,Yvelines department,0,Flood,2000-0792,2000-0792-FRA,48.81600983,1.841468487,0,Km2,2/12/2000,0,0,600,0,600,0,66.53499421
5547,Russia,RUS,365,2007,19611,Yuzhnoural'sk,2,Chelyabinsk,Yuzhno-Sakhalinsk,0,Earthquake,2007-0334,2007-0334-RUS,54.44600516,61.28331053,6,Richter,2/8/2007,2,12,0,7500,7512,420000,80.11339326
1218,China,CHN,710,1991,4622,Shanxi,1,Shanxi,Yuxian,0,Earthquake,1991-0088,1991-0088-CHN,37.57642454,112.2919106,6,Richter,26/3/1991,1,542,240000,0,240542,0,52.62202002
02-144,China,CHN,710,2018,30877,Yuxi,2,Yunnan,Yuxi ,0,Earthquake,2018-0323,2018-0323-CHN,24.13815846,102.1990227,5,Richter,13/8/2018,0,24,18000,0,18024,50000,97.02312922
1637,China,CHN,710,2014,4240,Hebei,1,Hebei,Yutian,0,Earthquake,2014-0086,2014-0086-CHN,39.54672665,116.1309498,7,Richter,12/2/2014,0,0,450000,0,450000,174000,91.47061409
04-119,China,CHN,710,2002,38895,Yunnan,1,Yunnan,Yunnan Sheng province,0,Landslide,2002-0508,2002-0508-CHN,24.97571744,101.4898344,0,0,1/8/2002,16,0,0,0,0,0,69.50047255
1359,China,CHN,710,2001,4809,Yunnan,1,Yunnan,Yunnan Sheng,0,Earthquake,2001-0214,2001-0214-CHN,24.97571744,101.4898344,6,Richter,23/5/2001,2,605,0,10000,10605,36000,68.41537906
1400,China,CHN,710,2003,4814,Yunnan,1,Yunnan,Yunnan Sheng,0,Earthquake,2003-0348,2003-0348-CHN,24.97571744,101.4898344,6,Richter,21/7/2003,16,584,1250000,45000,1295584,75000,71.07819758
1406,China,CHN,710,2003,4815,Yunnan,1,Yunnan,Yunnan Sheng,0,Earthquake,2003-0509,2003-0509-CHN,24.97571744,101.4898344,6,Richter,16/10/2003,3,56,60000,0,60056,60000,71.07819758
05-187,China,CHN,710,2009,40477,Yunnan,1,Yunnan,Yunnan Sheng,0,Drought,2009-9655,2009-9655-CHN,24.97571744,101.4898344,0,Km2,1/10/2009,0,0,60000000,0,60000000,3600000,82.89324989
05-189,China,CHN,710,2013,40491,Yunnan,1,Yunnan,Yunnan Sheng,0,Drought,2013-9062,2013-9062-CHN,24.97571744,101.4898344,0,Km2,1/1/2013,0,0,5000000,0,5000000,0,90.01044002
1156,China,CHN,710,1985,4791,Yunnan,1,Yunnan,Yunnan province,0,Earthquake,1985-0055,1985-0055-CHN,24.97571744,101.4898344,6,Richter,18/4/1985,22,300,0,0,300,0,41.56182689
1188,China,CHN,710,1988,4792,Yunnan,1,Yunnan,Yunnan province,0,Earthquake,1988-0502,1988-0502-CHN,24.97571744,101.4898344,8,Richter,6/11/1988,939,3364,1000000,267000,1270364,269000,45.69289676
1191,China,CHN,710,1989,4793,Yunnan,1,Yunnan,Yunnan province,0,Earthquake,1989-0155,1989-0155-CHN,24.97571744,101.4898344,6,Richter,7/5/1989,1,91,0,26500,26591,54000,47.89849737
1238,China,CHN,710,1993,4795,Yunnan,1,Yunnan,Yunnan province,0,Earthquake,1993-0108,1993-0108-CHN,24.97571744,101.4898344,6,Richter,27/1/1993,0,66,107220,34860,142146,0,55.8161073
1267,China,CHN,710,1995,4797,Yunnan,1,Yunnan,Yunnan province,0,Earthquake,1995-0148,1995-0148-CHN,24.97571744,101.4898344,7,Richter,12/7/1995,11,136,1000000,0,1000136,36100,58.87818329
1273,China,CHN,710,1995,4798,Yunnan,1,Yunnan,Yunnan province,0,Earthquake,1995-0261,1995-0261-CHN,24.97571744,101.4898344,6,Richter,24/10/1995,46,297,0,20000,20297,80000,58.87818329
1286,China,CHN,710,1996,4800,Yunnan,1,Yunnan,Yunnan Province,0,Earthquake,1996-0205,1996-0205-CHN,24.97571744,101.4898344,6,Richter,25/9/1996,0,137,0,0,137,0,60.60402838
1349,China,CHN,710,2000,4807,Yunnan,1,Yunnan,Yunnan province,0,Earthquake,2000-0527,2000-0527-CHN,24.97571744,101.4898344,5,Richter,21/8/2000,1,211,0,177400,177611,43000,66.53499421
1357,China,CHN,710,2001,4808,Yunnan,1,Yunnan,Yunnan province,0,Earthquake,2001-0151,2001-0151-CHN,24.97571744,101.4898344,6,Richter,12/4/2001,2,190,150000,0,150190,31000,68.41537906
1370,China,CHN,710,2001,4811,Yunnan,1,Yunnan,Yunnan province,0,Flood,2001-0360,2001-0360-CHN,24.97571744,101.4898344,5570,Km2,25/8/2001,35,72,0,2630,2702,17000,68.41537906
1385,China,CHN,710,2002,4813,Yunnan,1,Yunnan,Yunnan province,0,Flood,2002-0498,2002-0498-CHN,24.97571744,101.4898344,17270,Km2,14/8/2002,178,311,999000,0,999311,4200,69.50047255
1446,China,CHN,710,2005,4823,Yunnan,1,Yunnan,Yunnan province,0,Flood,2005-0505,2005-0505-CHN,24.97571744,101.4898344,390,Km2,21/7/2005,16,23,0,0,23,560,75.45719958
1479,China,CHN,710,2006,4826,Yunnan,1,Yunnan,Yunnan province,0,Flood,2006-0392,2006-0392-CHN,24.97571744,101.4898344,1666,Km2,20/7/2006,35,0,0,0,0,0,77.89139999
1480,China,CHN,710,2006,4827,Yunnan,1,Yunnan,Yunnan province,0,Earthquake,2006-0397,2006-0397-CHN,24.97571744,101.4898344,5,Richter,22/7/2006,22,106,190000,75000,265106,0,77.89139999
1486,China,CHN,710,2006,4829,Yunnan,1,Yunnan,Yunnan province,0,Flood,2006-0567,2006-0567-CHN,24.97571744,101.4898344,24770,Km2,6/10/2006,27,4,20000,0,20004,0,77.89139999
1521,China,CHN,710,2008,4838,Yunnan,1,Yunnan,Yunnan province,0,Earthquake,2008-0374,2008-0374-CHN,24.97571744,101.4898344,6,Richter,30/8/2008,40,589,950000,50000,1000589,492000,83.18902296
1527,China,CHN,710,2008,4840,Yunnan,1,Yunnan,Yunnan province,0,Earthquake,2008-0588,2008-0588-CHN,24.97571744,101.4898344,5,Richter,25/12/2008,0,19,27000,150,27169,0,83.18902296
1549,China,CHN,710,2010,4843,Yunnan,1,Yunnan,Yunnan province,0,Earthquake,2010-0087,2010-0087-CHN,24.97571744,101.4898344,5,Richter,25/2/2010,0,11,50000,0,50011,0,84.25273272
1563,China,CHN,710,2011,4848,Yunnan,1,Yunnan,Yunnan province,0,Earthquake,2011-0090,2011-0090-CHN,24.97571744,101.4898344,7,Richter,24/3/2011,0,12,9496,0,9508,0,86.91246502
1640,China,CHN,710,2014,4858,Yunnan,1,Yunnan,Yunnan province,0,Earthquake,2014-0129,2014-0129-CHN,24.97571744,101.4898344,5,Richter,4/4/2014,0,21,75000,0,75021,80000,91.47061409
1644,China,CHN,710,2014,4859,Yunnan,1,Yunnan,Yunnan province,0,Earthquake,2014-0173,2014-0173-CHN,24.97571744,101.4898344,6,Richter,24/5/2014,0,15,225000,0,225015,60000,91.47061409
1651,China,CHN,710,2014,4862,Yunnan,1,Yunnan,Yunnan province,0,Flood,2014-0266,2014-0266-CHN,24.97571744,101.4898344,0,Km2,3/7/2014,23,0,0,25000,25000,500000,91.47061409
01-325,China,CHN,710,1985,29378,Yunnan,1,Yunnan,Yunnan province,0,Flood,1985-0058,1985-0058-CHN,24.97571744,101.4898344,0,Km2,1/5/1985,283,0,14000,0,14000,1400,41.56182689
Apr-99,China,CHN,710,1991,40198,Yunnan,1,Yunnan,Yunnan province,0,Landslide,1991-0226,1991-0226-CHN,24.97571744,101.4898344,0,0,23/9/1991,200,0,0,0,0,0,52.62202002
Feb-91,China,CHN,710,2016,34987,Yunnan,1,Yunnan,Yunnan - Dali Bai,0,Earthquake,2016-0536,2016-0536-CHN,24.97571744,101.4898344,5,Richter,18/5/2016,2,0,0,5000,5000,60000,92.73447917
1228,China,CHN,710,1992,4794,Yunnan,1,Yunnan,Yunnan,0,Flood,1992-0210,1992-0210-CHN,24.97571744,101.4898344,491100,Km2,12/6/1992,88,300,0,435000,435300,3700,54.21584465
1255,China,CHN,710,1994,4796,Yunnan,1,Yunnan,Yunnan,0,Flood,1994-0785,1994-0785-CHN,24.97571744,101.4898344,0,Km2,30/6/1994,41,320,0,0,320,12100,57.27148263
1292,China,CHN,710,1997,4801,Yunnan,1,Yunnan,Yunnan,0,Flood,1997-0144,1997-0144-CHN,24.97571744,101.4898344,12110,Km2,3/5/1997,103,8229,0,363000,371229,160000,62.02075732
1318,China,CHN,710,1998,4804,Yunnan,1,Yunnan,Yunnan,0,Earthquake,1998-0454,1998-0454-CHN,24.97571744,101.4898344,5,Richter,1/12/1998,0,84,107000,0,107084,22600,62.98350111
1367,China,CHN,710,2001,4810,Yunnan,1,Yunnan,Yunnan,0,Earthquake,2001-0389,2001-0389-CHN,24.97571744,101.4898344,5,Richter,14/7/2001,0,0,25000,0,25000,0,68.41537906
1426,China,CHN,710,2004,4818,Yunnan,1,Yunnan,Yunnan,0,Flood,2004-0372,2004-0372-CHN,24.97571744,101.4898344,27920,Km2,15/7/2004,133,4026,33648000,0,33652026,1100000,72.98112921
1430,China,CHN,710,2004,4820,Yunnan,1,Yunnan,Yunnan,0,Flood,2004-0457,2004-0457-CHN,24.97571744,101.4898344,362800,Km2,2/9/2004,222,10000,8240000,3000,8253000,471000,72.98112921
1508,China,CHN,710,2008,4833,Yunnan,1,Yunnan,Yunnan,0,Earthquake,2008-0192,2008-0192-CHN,24.97571744,101.4898344,8,Richter,12/5/2008,87476,366596,45610000,0,45976596,85000000,83.18902296
1512,China,CHN,710,2008,4834,Yunnan,1,Yunnan,Yunnan,0,Flood,2008-0243,2008-0243-CHN,24.97571744,101.4898344,366860,Km2,7/6/2008,176,0,1600000,0,1600000,2200000,83.18902296
1514,China,CHN,710,2008,4835,Yunnan,1,Yunnan,Yunnan,0,Flood,2008-0598,2008-0598-CHN,24.97571744,101.4898344,0,Km2,7/7/2008,19,0,3000000,0,3000000,102000,83.18902296
1526,China,CHN,710,2008,4839,Yunnan,1,Yunnan,Yunnan,0,Flood,2008-0507,2008-0507-CHN,24.97571744,101.4898344,0,Km2,31/10/2008,67,0,411000,0,411000,29000,83.18902296
1534,China,CHN,710,2009,4841,Yunnan,1,Yunnan,Yunnan,0,Flood,2009-0292,2009-0292-CHN,24.97571744,101.4898344,542100,Km2,1/7/2009,90,0,39372000,0,39372000,1000000,82.89324989
1552,China,CHN,710,2010,4844,Yunnan,1,Yunnan,Yunnan,0,Flood,2010-0239,2010-0239-CHN,24.97571744,101.4898344,0,Km2,29/5/2010,1691,0,134000000,0,134000000,18000000,84.25273272
1569,China,CHN,710,2011,4849,Yunnan,1,Yunnan,Yunnan,0,Flood,2011-0212,2011-0212-CHN,24.97571744,101.4898344,1341347,Km2,11/7/2011,6,0,1600000,0,1600000,54130,86.91246502
1570,China,CHN,710,2011,4850,Yunnan,1,Yunnan,Yunnan,0,Flood,2011-0421,2011-0421-CHN,24.97571744,101.4898344,1215862,Km2,1/8/2011,22,0,3800000,0,3800000,0,86.91246502
1597,China,CHN,710,2012,4852,Yunnan,1,Yunnan,Yunnan,0,Earthquake,2012-0350,2012-0350-CHN,24.97571744,101.4898344,6,Richter,7/9/2012,81,821,744000,0,744821,1000000,88.71096898
1634,China,CHN,710,2013,4857,Yunnan,1,Yunnan,Yunnan,0,Flood,2013-0554,2013-0554-CHN,24.97571744,101.4898344,0,Km2,14/12/2013,0,0,0,90000,90000,410000,90.01044002
1645,China,CHN,710,2014,4860,Yunnan,1,Yunnan,Yunnan,0,Earthquake,2014-0177,2014-0177-CHN,24.97571744,101.4898344,6,Richter,30/5/2014,0,45,184678,0,184723,2000,91.47061409
1646,China,CHN,710,2014,4861,Yunnan,1,Yunnan,Yunnan,0,Flood,2014-0212,2014-0212-CHN,24.97571744,101.4898344,0,Km2,1/6/2014,33,0,350000,370000,720000,677000,91.47061409
1652,China,CHN,710,2014,4863,Yunnan,1,Yunnan,Yunnan,0,Flood,2014-0406,2014-0406-CHN,24.97571744,101.4898344,0,Km2,10/7/2014,24,0,61000,0,61000,0,91.47061409
01-332,China,CHN,710,1986,29390,Yunnan,1,Yunnan,Yunnan,0,Flood,1986-0229,1986-0229-CHN,24.97571744,101.4898344,0,Km2,1/7/1986,233,0,7000000,0,7000000,1210,42.35069857
04-101,China,CHN,710,1994,38851,Yunnan,1,Yunnan,Yunnan,0,Landslide,1994-0312,1994-0312-CHN,24.97571744,101.4898344,0,0,1/7/1994,48,0,0,0,0,0,57.27148263
1601,China,CHN,710,2013,4432,Jiangsu,1,Jiangsu,Yunlong,0,Earthquake,2013-0081,2013-0081-CHN,32.97290031,119.4547481,5,Richter,3/3/2013,0,30,417170,10540,427740,56000,90.01044002
6102,Taiwan,TWN,713,2013,21179,Yulin,2,Taiwan,Yunlin,0,Earthquake,2013-0206,2013-0206-TWN,23.68452535,120.3896748,6,Richter,2/6/2013,4,19,1500,0,1519,1100,90.01044002
1374,China,CHN,710,2001,4812,Yunnan,1,Yunnan,Yunan province,0,Earthquake,2001-0598,2001-0598-CHN,24.97571744,101.4898344,6,Richter,27/10/2001,1,220,0,17000,17220,0,68.41537906
1517,China,CHN,710,2008,4836,Yunnan,1,Yunnan,Yunan province,0,Flood,2008-0416,2008-0416-CHN,24.97571744,101.4898344,24610,Km2,7/8/2008,20,0,810000,0,810000,42000,83.18902296
1501,China,CHN,710,2007,4832,Yunnan,1,Yunnan,Yunan,0,Flood,2007-0405,2007-0405-CHN,24.97571744,101.4898344,32590,Km2,22/8/2007,17,0,213000,0,213000,5500,80.11339326
1389,China,CHN,710,2002,3954,Gansu,1,Gansu,Yumen Shi,0,Earthquake,2002-0835,2002-0835-CHN,37.82078887,100.9338739,6,Richter,14/12/2002,2,0,65500,0,65500,0,69.50047255
6441,Uganda,UGA,500,2007,22643,Yumbe,1,Yumbe,Yumbe,0,Flood,2007-0408,2007-0408-UGA,3.525476834,31.28857773,0,Km2,15/8/2007,29,0,435070,282975,718045,71,80.11339326
02-115,China,CHN,710,2017,30671,Yulin,3,Shaanxi,Yulin city ,0,Flood,2017-0568,2017-0568-CHN,38.38543145,109.6243274,0,Km2,26/4/2017,8,0,76800,0,76800,492000,94.70984073
6057,Taiwan,TWN,713,1998,21177,Yulin,2,Taiwan,Yulin,0,Flood,1998-0607,1998-0607-TWN,23.68452535,120.3896748,0,Km2,1/6/1998,3,0,300,0,300,19000,62.98350111
1475,China,CHN,710,2006,4120,Guangxi,1,Guangxi,Yulin,0,Flood,2006-0367,2006-0367-CHN,23.82701469,108.7865663,20120,Km2,7/7/2006,10,0,1400000,0,1400000,31000,77.89139999
6380,Turkey,TUR,640,2002,22513,Yozgat,1,Yozgat,Yozgat,0,Flood,2002-0450,2002-0450-TUR,39.66283599,35.25073709,15130,Km2,23/7/2002,34,0,3000,0,3000,0,69.50047255
6137,Tajikistan,TJK,702,2010,21305,Yovon,2,Khatlon,Yovon,0,Flood,2010-0175,2010-0175-TJK,38.21977334,68.99111817,0,Km2,6/5/2010,73,300,6408,0,6708,204000,84.25273272
2581,Honduras,HND,91,1993,7630,Yoro,1,Yoro,Yoro,0,Flood,1993-0084,1993-0084-HND,15.30029186,-87.20327855,6650,Km2,31/10/1993,374,0,15000,0,15000,56700,55.8161073
2587,Honduras,HND,91,1996,7631,Yoro,1,Yoro,Yoro,0,Flood,1996-0265,1996-0265-HND,15.30029186,-87.20327855,134,Km2,20/11/1996,7,0,75000,0,75000,31000,60.60402838
2590,Honduras,HND,91,2002,7633,Yoro,1,Yoro,Yoro,0,Flood,2002-0329,2002-0329-HND,15.30029186,-87.20327855,0,Km2,23/5/2002,10,0,825,144,969,100000,69.50047255
2593,Honduras,HND,91,2003,7634,Yoro,1,Yoro,Yoro,0,Flood,2003-0661,2003-0661-HND,15.30029186,-87.20327855,5300,Km2,28/11/2003,7,0,3000,0,3000,20000,71.07819758
2610,Honduras,HND,91,2011,7641,Yoro,1,Yoro,Yoro,0,Flood,2011-0386,2011-0386-HND,15.30029186,-87.20327855,0,Km2,17/10/2011,33,0,69798,0,69798,0,86.91246502
6525,United Kingdom,GBR,200,2012,22981,York,2,England,York,0,Flood,2012-0446,2012-0446-GBR,53.94069213,-1.072903778,8507,Km2,23/9/2012,3,0,1500,0,1500,81000,88.71096898
04-115,China,CHN,710,2001,38886,Yongsheng,3,Yunnan,Yongsheng Xian area,0,Landslide,2001-0573,2001-0573-CHN,26.49125122,100.6998444,0,0,28/9/2001,14,18,10000,0,10018,0,68.41537906
1665,China,CHN,710,2014,4866,Yunnan,1,Yunnan,Yongping,0,Earthquake,2014-0449,2014-0449-CHN,24.97571744,101.4898344,6,Richter,7/10/2014,1,324,255000,0,255324,274000,91.47061409
1317,China,CHN,710,1998,4259,Henan,1,Henan,Yongcheng,0,Earthquake,1998-0384,1998-0384-CHN,33.88331294,113.6128077,6,Richter,19/11/1998,3,1543,312300,23600,337443,70000,62.98350111
3636,Japan,JPN,740,2003,11323,Niigata,1,Niigata,Yoneyama,0,Earthquake,2003-0354,2003-0354-JPN,37.52181911,138.9186474,6,Richter,25/7/2003,0,569,17403,219,18191,411000,71.07819758
4633,Nigeria,NGA,475,2005,14799,Yobe,1,Yobe,Yobe,0,Flood,2005-0423,2005-0423-NGA,12.29652727,11.44253345,159500,Km2,7/8/2005,60,4,0,3000,3004,147,75.45719958
4638,Nigeria,NGA,475,2007,14800,Yobe,1,Yobe,Yobe,0,Flood,2007-0419,2007-0419-NGA,12.29652727,11.44253345,630100,Km2,4/8/2007,68,0,50000,0,50000,0,80.11339326
4648,Nigeria,NGA,475,2012,14802,Yobe,1,Yobe,Yobe,0,Flood,2012-0366,2012-0366-NGA,12.29652727,11.44253345,0,Km2,1/7/2012,363,867,7000000,0,7000867,500000,88.71096898
04-111,China,CHN,710,2000,38876,Yingjiang,3,Yunnan,Yingjiang Xian area ,0,Landslide,2000-0559,2000-0559-CHN,24.85838447,97.91912594,0,0,13/8/2000,14,27,0,0,27,2400,66.53499421
1519,China,CHN,710,2008,4837,Yunnan,1,Yunnan,Yingjiang,0,Earthquake,2008-0355,2008-0355-CHN,24.97571744,101.4898344,6,Richter,21/8/2008,6,160,0,0,160,0,83.18902296
1561,China,CHN,710,2011,4846,Yunnan,1,Yunnan,Yingjiang,0,Earthquake,2011-0030,2011-0030-CHN,24.97571744,101.4898344,5,Richter,1/2/2011,0,1,0,64500,64501,0,86.91246502
1562,China,CHN,710,2011,4847,Yunnan,1,Yunnan,Yingjiang,0,Earthquake,2011-0079,2011-0079-CHN,24.97571744,101.4898344,6,Richter,10/3/2011,25,250,0,5190,5440,290000,86.91246502
1476,China,CHN,710,2006,4467,Jiangxi,1,Jiangxi,Yichun city,0,Flood,2006-0364,2006-0364-CHN,27.61292064,115.720715,1400,Km2,11/7/2006,0,0,4000,0,4000,0,77.89139999
04-122,China,CHN,710,2002,38904,Wuding,3,Yunnan,Yichikou village ,0,Landslide,2002-0640,2002-0640-CHN,25.70960987,102.1758922,0,0,4/10/2002,15,11,0,0,11,0,69.50047255
1425,China,CHN,710,2004,4678,Sichuan,1,Sichuan,Yibin,0,Flood,2004-0306,2004-0306-CHN,30.61575411,102.7099641,14990,Km2,28/6/2004,15,0,0,0,0,0,72.98112921
4419,Myanmar,MMR,775,2011,14036,Yesagyo,3,Magway,Yesagyo,0,Flood,2011-0400,2011-0400-MMR,21.57719195,95.18676671,0,Km2,19/10/2011,151,0,35734,0,35734,1700,86.91246502
265,Armenia,ARM,371,1998,958,Erevan,1,Erevan,Yerevan city,0,Flood,1998-0338,1998-0338-ARM,40.17881954,44.53554269,0,Km2,30/5/1998,0,0,0,144,144,120,62.98350111
6415,Turkey,TUR,640,2014,22512,Yenice,2,Canakkale,Yenice,0,Earthquake,2014-0174,2014-0174-TUR,39.95242684,27.28510221,7,Richter,24/5/2014,0,324,0,0,324,0,91.47061409
2369,Ghana,GHA,452,2013,6938,Yendi,2,Northern,Yendi,0,Flood,2013-0122,2013-0122-GHA,9.389686324,-0.172443389,0,Km2,3/3/2013,5,0,25000,0,25000,0,90.01044002
7335,Vietnam,VNM,816,2006,27001,Yen Bai,1,Yen Bai,Yen Bai,0,Flood,2006-0446,2006-0446-VNM,21.77772998,104.5664672,119500,Km2,12/8/2006,42,20,50000,0,50020,8000,77.89139999
3285,Iran,IRN,630,1993,10276,Yazd,1,Yazd,Yazd,0,Flood,1993-0004,1993-0004-IRN,32.56293289,55.60219829,625200,Km2,3/2/1993,407,3,484725,0,484728,1000000,55.8161073
3295,Iran,IRN,630,1995,10277,Yazd,1,Yazd,Yazd,0,Flood,1995-0094,1995-0094-IRN,32.56293289,55.60219829,0,Km2,1/6/1995,16,0,0,250,250,0,58.87818329
3331,Iran,IRN,630,2002,10278,Yazd,1,Yazd,Yazd,0,Flood,2002-0218,2002-0218-IRN,32.56293289,55.60219829,44880,Km2,14/4/2002,11,0,0,0,0,0,69.50047255
4794,Panama,PAN,95,1999,15387,Yaviza,3,Darien,Yaviza,0,Flood,1999-0598,1999-0598-PAN,8.217462305,-77.75692537,0,Km2,23/12/1999,0,0,500,395,895,0,64.36159282
4208,Mexico,MEX,70,1999,13430,Yautepec,2,Morelos,Yautepec,0,Flood,1999-0285,1999-0285-MEX,18.85410777,-98.99914554,0,Km2,25/8/1999,8,100,1000,0,1100,0,64.36159282
5424,Puerto Rico,PRI,NA,2001,19155,Yauco,1,Yauco,Yauco,0,Flood,2001-0307,2001-0307-PRI,18.07981113,-66.85697,245,Km2,6/5/2001,2,0,9300,180,9480,146000,68.41537906
02-515,Peru,PER,135,2018,33212,Yauca,3,Arequipa,Yauca,0,Earthquake,2018-0011,2018-0011-PER,-15.63343796,-74.42952302,7,Richter,14/1/2018,2,139,7885,1295,9319,0,97.02312922
911,Burkina Faso,BFA,439,2003,3225,Yatenga,2,Nord,Yatenga,0,Flood,2003-0389,2003-0389-BFA,13.60296161,-2.385696986,0,Km2,10/8/2003,0,0,0,12120,12120,0,71.07819758
914,Burkina Faso,BFA,439,2007,3226,Yatenga,2,Nord,Yatenga,0,Flood,2007-0305,2007-0305-BFA,13.60296161,-2.385696986,2435,Km2,26/7/2007,52,73,92970,28000,121043,0,80.11339326
916,Burkina Faso,BFA,439,2010,3227,Yatenga,2,Nord,Yatenga,0,Flood,2010-0300,2010-0300-BFA,13.60296161,-2.385696986,160800,Km2,21/7/2010,16,0,133362,0,133362,176,84.25273272
3268,Iran,IRN,630,1989,10110,Kohgiluyeh And Buyer Ahmad,1,Kohgiluyeh And Buyer Ahmad,Yasuj,0,Earthquake,1989-0090,1989-0090-IRN,30.81058112,50.73165508,6,Richter,27/5/1989,100,17,0,200,217,0,47.89849737
3677,Japan,JPN,740,2011,11727,Yasuda,2,Kochi,Yasuda city,0,Flood,2011-0663,2011-0663-JPN,33.48635717,134.0078655,0,Km2,29/7/2011,6,0,2000,0,2000,0,86.91246502
6187,Thailand,THA,800,1980,22102,Yasothon,1,Yasothon,Yasothon,0,Flood,1980-0280,1980-0280-THA,15.8949778,104.3411038,0,Km2,3/10/1980,57,0,630000,0,630000,59700,31.84110657
6230,Thailand,THA,800,2001,22105,Yasothon,1,Yasothon,Yasothon,0,Flood,2001-0528,2001-0528-THA,15.8949778,104.3411038,0,Km2,31/8/2001,0,0,4000,0,4000,0,68.41537906
6240,Thailand,THA,800,2004,22106,Yasothon,1,Yasothon,Yasothon,0,Flood,2004-0441,2004-0441-THA,15.8949778,104.3411038,154400,Km2,6/8/2004,9,0,500000,0,500000,0,72.98112921
345,Australia,AUS,900,2008,1130,Kempsey,2,New South Wales,Yarrahappini,0,Flood,2008-0014,2008-0014-AUS,-30.95237783,152.6447299,41560,Km2,3/1/2008,1,0,3000,0,3000,90000,83.18902296
4731,Pakistan,PAK,770,2005,14994,Chitral,3,N.W.F.P.,Yarkhoon valleys,0,Flood,2005-0079,2005-0079-PAK,36.22647705,72.23618133,123200,Km2,9/2/2005,520,450,7000000,0,7000450,30000,75.45719958
403,Azerbaijan,AZE,373,1995,1494,Yardimli,2,Lankaran,Yardimli,0,Flood,1995-0099,1995-0099-AZE,38.88030703,48.25370469,80960,Km2,15/6/1995,0,0,1500000,150000,1650000,6700,58.87818329
407,Azerbaijan,AZE,373,1998,1495,Yardimli,2,Lankaran,Yardimili,0,Earthquake,1998-0215,1998-0215-AZE,38.88030703,48.25370469,6,Richter,9/7/1998,1,10,700000,0,700010,0,62.98350111
7219,Venezuela,VEN,101,1999,26389,Yaracuy,1,Yaracuy,Yaracuy,0,Flood,1999-0547,1999-0547-VEN,10.31567296,-68.69981541,350,Km2,15/12/1999,30000,2700,366547,114388,483635,3160000,64.36159282
7227,Venezuela,VEN,101,2005,26390,Yaracuy,1,Yaracuy,Yaracuy,0,Flood,2005-0073,2005-0073-VEN,10.31567296,-68.69981541,0,Km2,7/2/2005,76,42,25000,0,25042,50000,75.45719958
1887,Cuba,CUB,40,2008,5759,Yara,2,Granma,Yara,0,Flood,2008-0532,2008-0532-CUB,20.3575181,-76.95794909,35290,Km2,17/11/2008,0,0,20000,0,20000,0,83.18902296
4708,Pakistan,PAK,770,1998,15252,Swabi,3,N.W.F.P.,Yar Husain,0,Earthquake,1998-0579,1998-0579-PAK,34.13624248,72.46791818,6,Richter,20/2/1998,1,11,0,600,611,0,62.98350111
3174,Indonesia,IDN,850,2010,9872,Kepulauan Yapen,2,Papua,Yapen Island,0,Earthquake,2010-0238,2010-0238-IDN,-1.745698196,136.1741345,7,Richter,16/6/2010,17,0,0,4600,4600,0,84.25273272
1535,China,CHN,710,2009,4842,Yunnan,1,Yunnan,Yao'an,0,Earthquake,2009-0249,2009-0249-CHN,24.97571744,101.4898344,6,Richter,9/7/2009,1,336,15000,50000,65336,315000,82.89324989
1359,China,CHN,710,2001,4670,Sichuan,1,Sichuan,Yanyuan Xian,0,Earthquake,2001-0214,2001-0214-CHN,30.61575411,102.7099641,6,Richter,23/5/2001,2,605,0,10000,10605,36000,68.41537906
02-511,Peru,PER,135,2016,33135,Yanque,3,Arequipa,Yanque,0,Earthquake,2016-0298,2016-0298-PER,-15.78997716,-71.4558548,5,Richter,14/8/2016,4,67,11115,0,11182,0,92.73447917
1484,China,CHN,710,2006,4268,Henan,1,Henan,Yanjin Xian,0,Earthquake,2006-0475,2006-0475-CHN,33.88331294,113.6128077,5,Richter,25/8/2006,1,31,45520,0,45551,0,77.89139999
1480,China,CHN,710,2006,4267,Henan,1,Henan,Yanjin County,0,Earthquake,2006-0397,2006-0397-CHN,33.88331294,113.6128077,5,Richter,22/7/2006,22,106,190000,75000,265106,0,77.89139999
1588,China,CHN,710,2012,4429,Jiangsu,1,Jiangsu,Yangzhou,0,Earthquake,2012-0397,2012-0397-CHN,32.97290031,119.4547481,5,Richter,20/7/2012,1,2,2530,78,2610,0,88.71096898
01-352,China,CHN,710,1996,29431,Qinghai,1,Qinghai,Yangtse,0,Flood,1996-0169,1996-0169-CHN,35.74928715,96.00369368,0,Km2,1/8/1996,1200,0,0,0,0,6314500,60.60402838
2840,India,IND,750,2005,9013,West Sikkim,2,Sikkim,Yangthang,0,Flood,2005-0361,2005-0361-IND,27.34711035,88.17392386,6530,Km2,26/6/2005,6,0,5000,0,5000,23000,75.45719958
4412,Myanmar,MMR,775,2007,14033,Yangon,1,Yangon,Yangon area,0,Flood,2007-0186,2007-0186-MMR,16.96542567,96.17423589,15670,Km2,3/5/2007,5,0,3000,0,3000,0,80.11339326
4414,Myanmar,MMR,775,2007,14034,Yangon,1,Yangon,Yangon,0,Flood,2007-0318,2007-0318-MMR,16.96542567,96.17423589,119100,Km2,6/7/2007,0,55,97628,4237,101920,0,80.11339326
1463,China,CHN,710,2006,4049,Guangdong,1,Guangdong,Yangjiang,0,Flood,2006-0732,2006-0732-CHN,23.33519983,113.4152731,0,Km2,4/5/2006,16,0,0,7000,7000,57000,77.89139999
1524,China,CHN,710,2008,4504,Jilin,1,Jilin,Yangi,0,Earthquake,2008-0455,2008-0455-CHN,43.66451245,126.1932778,6,Richter,6/10/2008,30,19,0,735,754,0,83.18902296
05-521,North Korea,PRK,731,2012,42044,Ryanggang,1,Ryanggang,Yanggang-do,0,Drought,2012-9222,2012-9222-PRK,41.30647872,128.1692837,0,Km2,1/4/2012,0,0,3000000,0,3000000,0,88.71096898
02-113,China,CHN,710,2017,30664,Yangbi Yi,3,Yunnan,Yangbi ,0,Earthquake,2017-0113,2017-0113-CHN,25.60503957,99.89176449,5,Richter,26/3/2017,0,1,0,2105,2106,31000,94.70984073
04-524,Peru,PER,135,1981,39805,Cajamarca,1,Cajamarca,Yanacocha,0,Landslide,1981-0115,1981-0115-PER,-6.43013047,-78.74560131,0,0,31/12/1981,70,0,0,0,0,0,35.13179151
6251,Thailand,THA,800,2007,22101,Yan Ta Khao,2,Trang,Yan Ta Khao Sairung,0,Flood,2007-0142,2007-0142-THA,7.422199978,99.74018748,290,Km2,14/4/2007,38,0,0,0,0,0,80.11339326
19-Apr,Afghanistan,AFG,700,2015,39063,Badakhshan,1,Badakhshan,Yamgan district,0,Landslide,2015-0059,2015-0059-AFG,37.03289462,71.45897694,0,0,15/2/2015,6,0,100,0,100,0,91.57911703
886,Bulgaria,BGR,355,1997,3169,Yambol,1,Yambol,Yambol,0,Flood,1997-0572,1997-0572-BGR,42.29652324,26.62983815,0,Km2,14/12/1997,0,0,200,0,200,0,62.02075732
889,Bulgaria,BGR,355,2002,3170,Yambol,1,Yambol,Yambol,0,Flood,2002-0552,2002-0552-BGR,42.29652324,26.62983815,0,Km2,10/8/2002,1,0,0,0,0,1000,69.50047255
905,Bulgaria,BGR,355,2014,3171,Yambol,1,Yambol,Yambol,0,Flood,2014-0210,2014-0210-BGR,42.29652324,26.62983815,24415,Km2,19/6/2014,15,0,0,1260,1260,377000,91.47061409
346,Australia,AUS,900,2008,1237,New South Wales,1,New South Wales,Yamba,0,Flood,2008-0017,2008-0017-AUS,-32.16565906,147.0085368,649500,Km2,14/1/2008,0,0,3200,0,3200,600000,83.18902296
3649,Japan,JPN,740,2004,10944,Hokkaido,1,Hokkaido,Yamakoshi,0,Earthquake,2004-0532,2004-0532-JPN,43.38571051,142.5523179,7,Richter,23/10/2004,40,3183,59000,0,62183,28000000,72.98112921
04-406,Japan,JPN,740,2009,39508,Yamaguchi,1,Yamaguchi,Yamaguti,0,Landslide,2009-0275,2009-0275-JPN,34.20119008,131.5732932,0,0,20/7/2009,16,0,400,0,400,0,82.89324989
3569,Japan,JPN,740,1983,11697,Yamaguchi,1,Yamaguchi,Yamaguchi,0,Earthquake,1983-0081,1983-0081-JPN,34.20231962,131.5725496,8,Richter,26/5/1983,102,77,0,0,77,416000,38.4836513
3603,Japan,JPN,740,1994,11700,Yamaguchi,1,Yamaguchi,Yamaguchi,0,Earthquake,1994-0316,1994-0316-JPN,34.20231962,131.5725496,8,Richter,28/12/1994,2,285,0,0,285,170400,57.27148263
3690,Japan,JPN,740,2013,11706,Yamaguchi,1,Yamaguchi,Yamaguchi,0,Flood,2013-0265,2013-0265-JPN,34.20231962,131.5725496,0,Km2,28/7/2013,5,0,3633,0,3633,2000,90.01044002
3675,Japan,JPN,740,2011,11686,Yamagata,1,Yamagata,Yamagata prefecture,0,Earthquake,2011-0130,2011-0130-JPN,38.44787123,140.1016345,7,Richter,7/4/2011,2,132,0,0,132,0,86.91246502
3569,Japan,JPN,740,1983,11677,Yamagata,1,Yamagata,Yamagata,0,Earthquake,1983-0081,1983-0081-JPN,38.44787123,140.1016345,8,Richter,26/5/1983,102,77,0,0,77,416000,38.4836513
3603,Japan,JPN,740,1994,11680,Yamagata,1,Yamagata,Yamagata,0,Earthquake,1994-0316,1994-0316-JPN,38.44787123,140.1016345,8,Richter,28/12/1994,2,285,0,0,285,170400,57.27148263
3634,Japan,JPN,740,2003,11683,Yamagata,1,Yamagata,Yamagata,0,Earthquake,2003-0249,2003-0249-JPN,38.44787123,140.1016345,7,Richter,26/5/2003,0,143,2160,0,2303,233000,71.07819758
3674,Japan,JPN,740,2011,11685,Yamagata,1,Yamagata,Yamagata,0,Earthquake,2011-0082,2011-0082-JPN,38.44787123,140.1016345,9,Richter,11/3/2011,19846,5933,362887,0,368820,210000000,86.91246502
6365,Turkey,TUR,640,1999,22508,Yalova,1,Yalova,Yalova,0,Earthquake,1999-0268,1999-0268-TUR,40.58684243,29.12357155,8,Richter,17/8/1999,17127,43953,715000,600000,1358953,20000000,64.36159282
6367,Turkey,TUR,640,1999,22509,Yalova,1,Yalova,Yalova,0,Earthquake,1999-0314,1999-0314-TUR,40.58684243,29.12357155,6,Richter,13/9/1999,6,422,0,0,422,0,64.36159282
6415,Turkey,TUR,640,2014,22511,Yalova,1,Yalova,Yalova,0,Earthquake,2014-0174,2014-0174-TUR,40.58684243,29.12357155,7,Richter,24/5/2014,0,324,0,0,324,0,91.47061409
365,Australia,AUS,900,2012,1109,Gwydir,2,New South Wales,Yallaroi,0,Flood,2012-0037,2012-0037-AUS,-29.60595945,150.5120822,0,Km2,24/2/2012,2,0,3000,0,3000,363000,88.71096898
6192,Thailand,THA,800,1987,22086,Yala,1,Yala,Yala,0,Flood,1987-0219,1987-0219-THA,6.195915054,101.2298571,1370,Km2,30/11/1987,24,0,0,0,0,7200,43.90266239
6193,Thailand,THA,800,1988,22087,Yala,1,Yala,Yala,0,Flood,1988-0512,1988-0512-THA,6.195915054,101.2298571,0,Km2,19/11/1988,664,1878,1112941,0,1114819,169146,45.69289676
6204,Thailand,THA,800,1993,22088,Yala,1,Yala,Yala,0,Flood,1993-0483,1993-0483-THA,6.195915054,101.2298571,0,Km2,31/10/1993,4,2,302247,613,302862,319850,55.8161073
6210,Thailand,THA,800,1994,22089,Yala,1,Yala,Yala,0,Flood,1994-0657,1994-0657-THA,6.195915054,101.2298571,667,Km2,21/10/1994,11,3,109113,3141,112257,30000,57.27148263
6221,Thailand,THA,800,1999,22090,Yala,1,Yala,Yala,0,Flood,1999-0616,1999-0616-THA,6.195915054,101.2298571,0,Km2,4/12/1999,2,0,2000,0,2000,0,64.36159282
6225,Thailand,THA,800,2000,22091,Yala,1,Yala,Yala,0,Flood,2000-0755,2000-0755-THA,6.195915054,101.2298571,630,Km2,21/11/2000,51,570,808231,0,808801,57500,66.53499421
6237,Thailand,THA,800,2003,22092,Yala,1,Yala,Yala,0,Flood,2003-0617,2003-0617-THA,6.195915054,101.2298571,0,Km2,11/12/2003,6,0,104700,0,104700,1400,71.07819758
6247,Thailand,THA,800,2005,22094,Yala,1,Yala,Yala,0,Flood,2005-0690,2005-0690-THA,6.195915054,101.2298571,0,Km2,23/11/2005,55,0,700000,0,700000,97000,75.45719958
6255,Thailand,THA,800,2007,22095,Yala,1,Yala,Yala,0,Flood,2007-0611,2007-0611-THA,6.195915054,101.2298571,0,Km2,7/12/2007,3,0,65000,0,65000,0,80.11339326
6259,Thailand,THA,800,2008,22096,Yala,1,Yala,Yala,0,Flood,2008-0547,2008-0547-THA,6.195915054,101.2298571,15650,Km2,20/11/2008,21,0,700000,0,700000,11500,83.18902296
6260,Thailand,THA,800,2008,22097,Yala,1,Yala,Yala,0,Flood,2008-0634,2008-0634-THA,6.195915054,101.2298571,0,Km2,29/12/2008,0,0,32584,0,32584,344,83.18902296
6261,Thailand,THA,800,2009,22098,Yala,1,Yala,Yala,0,Flood,2009-0513,2009-0513-THA,6.195915054,101.2298571,35580,Km2,7/11/2009,15,0,200000,0,200000,0,82.89324989
6275,Thailand,THA,800,2014,22100,Yala,1,Yala,Yala,0,Flood,2014-0522,2014-0522-THA,6.195915054,101.2298571,0,Km2,13/12/2014,15,8,18880,0,18888,0,91.47061409
5517,Russia,RUS,365,2001,19549,Sakha,1,Sakha,Yakutia,0,Flood,2001-0227,2001-0227-RUS,66.15838367,130.1550658,2857000,Km2,12/5/2001,10,0,50305,0,50305,241000,68.41537906
5546,Russia,RUS,365,2007,19551,Sakha,1,Sakha,Yakutia,0,Flood,2007-0180,2007-0180-RUS,66.15838367,130.1550658,313200,Km2,13/5/2007,0,0,14000,0,14000,25752,80.11339326
37,Afghanistan,AFG,700,2003,178,Khan Char Bagh,2,Faryab,Yaka Bagh,0,Earthquake,2003-0236,2003-0236-AFG,37.11372159,65.2240833,5,Richter,10/4/2003,1,1,0,1000,1001,0,71.07819758
916,Burkina Faso,BFA,439,2010,3224,Yagha,2,Sahel,Yagha,0,Flood,2010-0300,2010-0300-BFA,13.40450649,0.601834198,160800,Km2,21/7/2010,16,0,133362,0,133362,176,84.25273272
1730,Colombia,COL,100,2004,5314,Yacopi,2,Cundinamarca,Yacopi,0,Flood,2004-0520,2004-0520-COL,5.57453148,-74.38952604,0,Km2,11/10/2004,36,72,345314,0,345386,0,72.98112921
05-165,China,CHN,710,1994,40407,Xuwen,3,Guangdong,Xuwen,0,Drought,1994-9096,1994-9096-CHN,20.42747493,110.2481108,100,Km2,1/1/1994,0,0,82000000,0,82000000,13755200,57.27148263
5729,Somalia,SOM,520,2014,20167,Xudur,2,Bakool,Xudur,0,Flood,2014-0456,2014-0456-SOM,4.185644371,43.89905319,42635,Km2,24/10/2014,0,0,90000,0,90000,0,91.47061409
1335,China,CHN,710,2000,4519,Liaoning,1,Liaoning,Xiuyan Manzu Zizhixian,0,Earthquake,2000-0041,2000-0041-CHN,41.2989153,122.6076547,5,Richter,11/1/2000,0,30,44000,18000,62030,0,66.53499421
1471,China,CHN,710,2006,3961,Gansu,1,Gansu,Xinsi,0,Earthquake,2006-0464,2006-0464-CHN,37.82078887,100.9338739,5,Richter,20/6/2006,0,5,125,0,130,0,77.89139999
1383,China,CHN,710,2002,4674,Sichuan,1,Sichuan,Xinlong Xian,0,Earthquake,2002-0655,2002-0655-CHN,30.61575411,102.7099641,5,Richter,8/8/2002,0,0,330,48,378,0,69.50047255
Feb-85,China,CHN,710,2016,34956,Xinjiang Uygur,1,Xinjiang Uygur,Xinjinag Uygur Zizhiqu province,0,Earthquake,2016-0480,2016-0480-CHN,41.11196232,85.20363342,7,Richter,25/11/2016,1,0,37200,0,37200,5500,92.73447917
1570,China,CHN,710,2011,4766,Xinjiang Uygur,1,Xinjiang Uygur,Xinjinag Uygur Autnomous,0,Flood,2011-0421,2011-0421-CHN,41.11196232,85.20363342,1215862,Km2,1/8/2011,22,0,3800000,0,3800000,0,86.91246502
1412,China,CHN,710,2003,4757,Xinjiang Uygur,1,Xinjiang Uygur,Xinjiang Uygur Zizhiqu,0,Earthquake,2003-0582,2003-0582-CHN,41.11196232,85.20363342,6,Richter,1/12/2003,11,73,3510,2435,6018,1933,71.07819758
1396,China,CHN,710,2003,4755,Xinjiang Uygur,1,Xinjiang Uygur,Xinjiang Uighur Autonomos,0,Flood,2003-0274,2003-0274-CHN,41.11196232,85.20363342,44620,Km2,5/6/2003,28,0,0,0,0,0,71.07819758
1572,China,CHN,710,2011,4767,Xinjiang Uygur,1,Xinjiang Uygur,Xinjiang region,0,Earthquake,2011-0601,2011-0601-CHN,41.11196232,85.20363342,6,Richter,11/8/2011,0,26,855,735,1616,0,86.91246502
1680,China,CHN,710,2015,4780,Xinjiang Uygur,1,Xinjiang Uygur,Xinjiang region,0,Earthquake,2015-0271,2015-0271-CHN,41.11196232,85.20363342,6,Richter,3/7/2015,3,263,0,9000,9263,3200,91.57911703
01-363,China,CHN,710,2002,29468,Xinjiang,3,Shanxi,Xinjiang region,0,Flood,2002-0278,2002-0278-CHN,35.62673983,111.1582388,0,Km2,1/5/2002,0,0,561800,0,561800,53000,69.50047255
02-116,China,CHN,710,2017,30673,Xinjiang,3,Shanxi,Xinjiang region,0,Earthquake,2017-0124,2017-0124-CHN,35.62673983,111.1582388,5,Richter,11/5/2017,8,23,0,4560,4583,2000,94.70984073
1599,China,CHN,710,2012,4771,Xinjiang Uygur,1,Xinjiang Uygur,Xinjiang province,0,Earthquake,2012-0536,2012-0536-CHN,41.11196232,85.20363342,5,Richter,7/12/2012,0,0,5500,0,5500,96000,88.71096898
1637,China,CHN,710,2014,4775,Xinjiang Uygur,1,Xinjiang Uygur,Xinjiang province,0,Earthquake,2014-0086,2014-0086-CHN,41.11196232,85.20363342,7,Richter,12/2/2014,0,0,450000,0,450000,174000,91.47061409
1276,China,CHN,710,1996,4739,Xinjiang Uygur,1,Xinjiang Uygur,Xinjiang,0,Earthquake,1996-0136,1996-0136-CHN,41.11196232,85.20363342,7,Richter,19/3/1996,26,128,0,33000,33128,24000,60.60402838
1279,China,CHN,710,1996,4740,Xinjiang Uygur,1,Xinjiang Uygur,Xinjiang,0,Flood,1996-0103,1996-0103-CHN,41.11196232,85.20363342,0,Km2,30/6/1996,2775,234000,150000000,4400000,154634000,12600000,60.60402838
1304,China,CHN,710,1998,4746,Xinjiang Uygur,1,Xinjiang Uygur,Xinjiang,0,Earthquake,1998-0580,1998-0580-CHN,41.11196232,85.20363342,5,Richter,19/3/1998,0,0,0,2000,2000,0,62.98350111
1309,China,CHN,710,1998,4748,Xinjiang Uygur,1,Xinjiang Uygur,Xinjiang,0,Earthquake,1998-0581,1998-0581-CHN,41.11196232,85.20363342,6,Richter,28/5/1998,0,28,15000,10000,25028,0,62.98350111
1381,China,CHN,710,2002,4752,Xinjiang Uygur,1,Xinjiang Uygur,Xinjiang,0,Flood,2002-0461,2002-0461-CHN,41.11196232,85.20363342,127600,Km2,21/7/2002,11,12,10000,2300,12312,38600,69.50047255
1474,China,CHN,710,2006,4760,Xinjiang Uygur,1,Xinjiang Uygur,Xinjiang,0,Flood,2006-0371,2006-0371-CHN,41.11196232,85.20363342,138200,Km2,2/7/2006,20,0,2400,0,2400,0,77.89139999
1577,China,CHN,710,2012,4769,Xinjiang Uygur,1,Xinjiang Uygur,Xinjiang,0,Earthquake,2012-0604,2012-0604-CHN,41.11196232,85.20363342,6,Richter,9/3/2012,0,36641,0,0,36641,84000,88.71096898
1585,China,CHN,710,2012,4770,Xinjiang Uygur,1,Xinjiang Uygur,Xinjiang,0,Earthquake,2012-0338,2012-0338-CHN,41.11196232,85.20363342,6,Richter,29/6/2012,0,52,155000,0,155052,68000,88.71096898
1618,China,CHN,710,2013,4772,Xinjiang Uygur,1,Xinjiang Uygur,Xinjiang,0,Flood,2013-0262,2013-0262-CHN,41.11196232,85.20363342,0,Km2,21/7/2013,36,0,718500,0,718500,1400000,90.01044002
1620,China,CHN,710,2013,4773,Xinjiang Uygur,1,Xinjiang Uygur,Xinjiang,0,Flood,2013-0264,2013-0264-CHN,41.11196232,85.20363342,0,Km2,25/7/2013,10,0,125000,0,125000,571000,90.01044002
1308,China,CHN,710,1998,4019,Guangdong,1,Guangdong,Xinhui,0,Flood,1998-0174,1998-0174-CHN,23.33519983,113.4152731,575,Km2,24/5/1998,15,0,1300,0,1300,34700,62.98350111
1234,China,CHN,710,1992,4527,Nei Mongol,1,Nei Mongol,Xiliao He,0,Flood,1992-0298,1992-0298-CHN,44.08653703,113.915341,0,Km2,1/8/1992,25,33,0,2400,2433,110000,54.21584465
01-882,Laos,LAO,812,2013,30286,Xiengkhor,2,Houaphan,XiengKhuang province,0,Flood,2013-0338,2013-0338-LAO,20.80632606,104.1332817,0,Km2,1/6/2013,20,77,350000,0,350077,60000,90.01044002
3898,Laos,LAO,812,2011,12124,Xiangkhoang,1,Xiangkhoang,Xiengkhuang,0,Flood,2011-0218,2011-0218-LAO,19.46497708,103.5179959,36797,Km2,23/6/2011,14,0,37000,0,37000,0,86.91246502
04-436,Mexico,MEX,70,1983,39563,Alpatlahuac,2,Veracruz,Xicola,0,Landslide,1983-0107,1983-0107-MEX,19.10881379,-97.03192689,0,0,11/8/1983,50,0,0,0,0,0,38.4836513
1473,China,CHN,710,2006,3809,Anhui,1,Anhui,Xiaoxian,0,Flood,2006-0336,2006-0336-CHN,31.82592929,117.226195,22760,Km2,28/6/2006,30,0,4120000,0,4120000,679000,77.89139999
02-110,China,CHN,710,2017,30652,Xianyang,2,Shaanxi,Xianyang,0,Flood,2017-0463,2017-0463-CHN,34.82794779,108.4493106,0,Km2,1/10/2017,23,0,0,15600,15600,75000,94.70984073
02-134,China,CHN,710,2017,30818,Xianyang,2,Shaanxi,Xianyang,0,Flood,2017-0398,2017-0398-CHN,34.82794779,108.4493106,283444,Km2,24/9/2017,16,0,53100,8400,61500,361000,94.70984073
1423,China,CHN,710,2004,4364,Hunan,1,Hunan,Xiangxi,0,Flood,2004-0284,2004-0284-CHN,27.60708367,111.7085178,92250,Km2,20/6/2004,47,500,168000,0,168500,361000,72.98112921
04-131,China,CHN,710,2008,38928,Xiangfen,3,Shanxi,Xiangfen area,0,Landslide,2008-0398,2008-0398-CHN,35.86958485,111.3721154,0,0,8/9/2008,277,35,0,0,35,0,83.18902296
04-121,China,CHN,710,2002,38900,Xianfeng,3,Hubei,Xianfeng Xian area ,0,Landslide,2002-0645,2002-0645-CHN,29.7303464,108.9920237,0,0,15/9/2002,22,0,0,0,0,0,69.50047255
871,Brazil,BRA,140,2013,3036,Xerem,3,Rio De Janeiro,Xerem,0,Flood,2013-0003,2013-0003-BRA,-22.58791053,-43.32652703,0,Km2,1/1/2013,4,0,200000,0,200000,2000,90.01044002
872,Brazil,BRA,140,2013,3037,Xerem,3,Rio De Janeiro,Xerem,0,Flood,2013-0077,2013-0077-BRA,-22.58791053,-43.32652703,0,Km2,17/3/2013,30,44,1466,0,1510,1500,90.01044002
3900,Laos,LAO,812,2013,12122,Xekong,1,Xekong,Xekong,0,Flood,2013-0417,2013-0417-LAO,15.58239059,107.0385733,0,Km2,16/9/2013,3,0,224176,0,224176,61000,90.01044002
3895,Laos,LAO,812,2008,12119,Xayabury,2,Xaignabouri,Xayabury,0,Flood,2008-0452,2008-0452-LAO,19.32476747,101.5977143,0,Km2,12/8/2008,6,0,204190,0,204190,0,83.18902296
3898,Laos,LAO,812,2011,12117,Xaignabouri,1,Xaignabouri,Xayaboury,0,Flood,2011-0218,2011-0218-LAO,18.94092544,101.3454638,36797,Km2,23/6/2011,14,0,37000,0,37000,0,86.91246502
187,Angola,AGO,540,2009,759,Ombadja,2,Cunene,Xangongo,0,Flood,2009-0092,2009-0092-AGO,-16.76689521,14.94232334,0,Km2,1/3/2009,60,0,220000,0,220000,0,82.89324989
4259,Mexico,MEX,70,2009,13429,Xalapa,2,Veracruz,Xalapa,0,Flood,2009-0377,2009-0377-MEX,19.56585394,-96.82364522,0,Km2,10/9/2009,3,0,18000,0,18000,0,82.89324989
4374,Mozambique,MOZ,541,2005,13889,Xai-Xai,2,Gaza,Xai-Xai,0,Flood,2005-0715,2005-0715-MOZ,-25.01343562,33.61513829,0,Km2,22/12/2005,16,12,20000,9000,29012,0,75.45719958
01-882,Laos,LAO,812,2013,30290,Houixai,2,Bokeo,Xai,0,Flood,2013-0338,2013-0338-LAO,20.388563,100.6280368,0,Km2,1/6/2013,20,77,350000,0,350077,60000,90.01044002
6515,United Kingdom,GBR,200,2007,22973,Worcestershire,2,England,Wyre Forest,0,Flood,2007-0247,2007-0247-GBR,52.21689397,-2.162606266,27720,Km2,25/6/2007,6,0,0,30000,30000,4000000,80.11339326
324,Australia,AUS,900,2003,1227,New South Wales,1,New South Wales,Wyong,0,Flood,2003-0292,2003-0292-AUS,-32.16565906,147.0085368,5265,Km2,13/5/2003,0,0,300,0,300,0,71.07819758
05-911,United States,USA,2,2000,43618,Wyoming,1,Wyoming,Wyoming province,0,Drought,2000-9712,2000-9712-USA,43.00029144,-107.5509609,0,Km2,1/11/2000,0,0,0,0,0,0,66.53499421
6602,United States,USA,2,1986,26154,Wyoming,1,Wyoming,Wyoming,0,Flood,1986-0030,1986-0030-USA,43.00079481,-107.5532,0,Km2,13/2/1986,13,0,0,0,0,0,42.35069857
6654,United States,USA,2,1990,26155,Wyoming,1,Wyoming,Wyoming,0,Flood,1990-0707,1990-0707-USA,43.00079481,-107.5532,86750,Km2,9/1/1990,3,0,3000,0,3000,45000,50.48403227
6690,United States,USA,2,1991,26156,Wyoming,1,Wyoming,Wyoming,0,Flood,1991-0503,1991-0503-USA,43.00079481,-107.5532,0,Km2,15/5/1991,0,0,0,0,0,0,52.62202002
1430,China,CHN,710,2004,4417,Jiangsu,1,Jiangsu,Wuxi,0,Flood,2004-0457,2004-0457-CHN,32.97290031,119.4547481,362800,Km2,2/9/2004,222,10000,8240000,3000,8253000,471000,72.98112921
1166,China,CHN,710,1987,4400,Jiangsu,1,Jiangsu,Wushi,0,Earthquake,1987-0102,1987-0102-CHN,32.97290031,119.4547481,6,Richter,24/1/1987,0,0,2085,0,2085,0,43.90266239
1160,China,CHN,710,1985,4736,Xinjiang Uygur,1,Xinjiang Uygur,Wuqia-Shufu,0,Earthquake,1985-0101,1985-0101-CHN,41.11196232,85.20363342,7,Richter,23/8/1985,67,100,0,16000,16100,0,41.56182689
2300,Germany,DEU,260,1992,6878,Wuppertal,2,Nordrhein-Westfalen,Wuppertal,0,Flood,1992-0556,1992-0556-DEU,51.25096321,7.169113352,0,Km2,28/8/1992,0,0,0,0,0,30100,54.21584465
04-116,China,CHN,710,2001,38888,Wulong,3,Chongqing,Wulong Xiang area ,0,Landslide,2001-0217,2001-0217-CHN,29.37799167,107.7042088,0,0,1/5/2001,74,0,0,0,0,0,68.41537906
04-135,China,CHN,710,2009,38944,Wulong,3,Chongqing,Wulong Xian area ,0,Landslide,2009-0218,2009-0218-CHN,29.37799167,107.7042088,0,0,5/6/2009,72,0,0,0,0,0,82.89324989
4312,China,CHN,710,2001,4735,Wuhai,2,Nei Mongol,Wuhai,0,Flood,2001-0716,2001-0716-CHN,39.56718363,106.8829412,0,Km2,17/12/2001,0,0,4000,0,4000,0,68.41537906
1619,China,CHN,710,2013,4576,Shaanxi,1,Shaanxi,Wudu Xian,0,Earthquake,2013-0242,2013-0242-CHN,35.19562261,108.8698497,6,Richter,22/7/2013,95,887,123000,0,123887,1000000,90.01044002
6783,United States,USA,2,1995,26017,Washington,1,Washington,Wsahington,0,Flood,1995-0481,1995-0481-USA,47.38228784,-120.4410727,111700,Km2,28/11/1995,2,0,15000,0,15000,100000,58.87818329
5377,Poland,POL,290,1997,19092,Wroclaw,2,Dolnoslaskie,Wroclaw,0,Flood,1997-0143,1997-0143-POL,50.99293528,16.95101354,34950,Km2,3/7/1997,55,0,162500,62000,224500,3500000,62.02075732
6481,United Kingdom,GBR,200,1990,22909,Shropshire,2,England,Wrexham-Welshpool-Shrewsbury,0,Earthquake,1990-0193,1990-0193-GBR,52.62811429,-2.723533831,5,Richter,2/4/1990,0,0,0,0,0,0,50.48403227
6481,United Kingdom,GBR,200,1990,22979,Wrexham,2,Wales,Wrexham,0,Earthquake,1990-0193,1990-0193-GBR,52.96033858,-3.057336644,5,Richter,2/4/1990,0,0,0,0,0,0,50.48403227
322,Australia,AUS,900,2003,982,Banana,2,Queensland,Wowan,0,Flood,2003-0079,2003-0079-AUS,-24.51804332,150.2442679,36500,Km2,5/2/2003,1,0,20,0,20,2000,71.07819758
6493,United Kingdom,GBR,200,1998,22971,Worcestershire,2,England,Worcestershire,0,Flood,1998-0441,1998-0441-GBR,52.21689397,-2.162606266,0,Km2,9/4/1998,5,0,300,0,300,500000,62.98350111
6516,United Kingdom,GBR,200,2007,22974,Worcestershire,2,England,Worcestershire,0,Flood,2007-0278,2007-0278-GBR,52.21689397,-2.162606266,24650,Km2,20/7/2007,7,0,340000,0,340000,4000000,80.11339326
6517,United Kingdom,GBR,200,2008,22975,Worcestershire,2,England,Worcestershire,0,Flood,2008-0055,2008-0055-GBR,52.21689397,-2.162606266,55860,Km2,15/1/2008,0,0,300,0,300,0,83.18902296
6519,United Kingdom,GBR,200,2008,22976,Worcestershire,2,England,Worcestershire,0,Flood,2008-0381,2008-0381-GBR,52.21689397,-2.162606266,47370,Km2,6/9/2008,8,0,3000,0,3000,50000,83.18902296
6973,United States,USA,2,2005,26149,Worcester,2,Massachusetts,Worcester,0,Flood,2005-0583,2005-0583-USA,38.21914318,-75.36308656,38290,Km2,8/10/2005,11,0,3000,0,3000,0,75.45719958
353,Australia,AUS,900,2009,1395,Woollahra,2,New South Wales,Woollahra,0,Flood,2009-0589,2009-0589-AUS,-33.87165587,151.256909,149300,Km2,25/12/2009,0,0,200,0,200,0,82.89324989
7013,United States,USA,2,2007,23564,Fairfax,2,Virginia,Woodson,0,Flood,2007-0244,2007-0244-USA,38.84003237,-77.28019775,507800,Km2,26/6/2007,8,0,5000,0,5000,0,80.11339326
3187,Indonesia,IDN,850,2011,9869,Wonosobo,2,Jawa Tengah,Wonosobo province,0,Flood,2011-0603,2011-0603-IDN,-7.416705962,109.9089214,2457,Km2,18/12/2011,10,0,54,0,54,0,86.91246502
3146,Indonesia,IDN,850,2007,9868,Wonogiri,2,Jawa Tengah,Wonogiri,0,Flood,2007-0610,2007-0610-IDN,-7.922087768,110.9979533,50690,Km2,25/12/2007,127,95,259545,9875,269515,0,80.11339326
2123,Ethiopia,ETH,530,2013,6380,Wolayita,2,Southern Nations; Nationalities And Peoples,Wolyita,0,Flood,2013-0125,2013-0125-ETH,6.861011915,37.71546968,0,Km2,10/4/2013,0,0,51500,0,51500,2200,90.01044002
303,Australia,AUS,900,1998,1215,New South Wales,1,New South Wales,Wollongong,0,Flood,1998-0261,1998-0261-AUS,-32.16565906,147.0085368,0,Km2,21/7/1998,1,0,6300,0,6300,122700,62.98350111
353,Australia,AUS,900,2009,1394,Wollondilly,2,New South Wales,Wollondilly,0,Flood,2009-0589,2009-0589-AUS,-34.10289124,150.4438986,149300,Km2,25/12/2009,0,0,200,0,200,0,82.89324989
05-292,Ethiopia,ETH,530,1983,40903,Debub Wollo,2,Amhara,Wollo,0,Drought,1983-9060,1983-9060-ETH,10.95792064,39.1941103,0,Km2,1/5/1983,300000,0,7750000,0,7750000,0,38.4836513
2105,Ethiopia,ETH,530,2005,6379,Wolayita,2,Southern Nations; Nationalities And Peoples,Wolayita,0,Flood,2005-0215,2005-0215-ETH,6.861011915,37.71546968,0,Km2,23/4/2005,156,0,235418,0,235418,5000,75.45719958
6681,United States,USA,2,1991,26103,Wisconsin,1,Wisconsin,Wisconsin,0,Flood,1991-0491,1991-0491-USA,44.64088617,-89.73484025,0,Km2,26/3/1991,0,0,0,0,0,0,52.62202002
6752,United States,USA,2,1993,26106,Wisconsin,1,Wisconsin,Wisconsin,0,Flood,1993-0043,1993-0043-USA,44.64088617,-89.73484025,445000,Km2,24/6/1993,48,0,31000,0,31000,12000000,55.8161073
6839,United States,USA,2,1998,26113,Wisconsin,1,Wisconsin,Wisconsin,0,Flood,1998-0606,1998-0606-USA,44.64088617,-89.73484025,0,Km2,13/6/1998,0,0,1000,0,1000,200500,62.98350111
6840,United States,USA,2,1998,26114,Wisconsin,1,Wisconsin,Wisconsin,0,Flood,1998-0199,1998-0199-USA,44.64088617,-89.73484025,0,Km2,24/6/1998,11,0,9000,5000,14000,469000,62.98350111
6843,United States,USA,2,1998,26115,Wisconsin,1,Wisconsin,Wisconsin,0,Flood,1998-0605,1998-0605-USA,44.64088617,-89.73484025,0,Km2,4/8/1998,2,0,600,0,600,62500,62.98350111
6844,United States,USA,2,1998,26116,Wisconsin,1,Wisconsin,Wisconsin,0,Flood,1998-0256,1998-0256-USA,44.64088617,-89.73484025,0,Km2,7/8/1998,0,0,1200,0,1200,60000,62.98350111
6896,United States,USA,2,2001,26119,Wisconsin,1,Wisconsin,Wisconsin,0,Flood,2001-0268,2001-0268-USA,44.64088617,-89.73484025,63380,Km2,15/4/2001,1,0,4400,0,4400,13000,68.41537906
7024,United States,USA,2,2008,26132,Wisconsin,1,Wisconsin,Wisconsin,0,Flood,2008-0131,2008-0131-USA,44.64088617,-89.73484025,565200,Km2,17/3/2008,18,0,1000,0,1000,2000,83.18902296
7029,United States,USA,2,2008,26134,Wisconsin,1,Wisconsin,Wisconsin,0,Flood,2008-0627,2008-0627-USA,44.64088617,-89.73484025,0,Km2,9/6/2008,24,148,11000000,0,11000148,10000000,83.18902296
07-281,United States,USA,2,2018,45092,Wisconsin,1,Wisconsin,Wisconsin,0,Flood,2018-0331,2018-0331-USA,44.64078545,-89.73591002,0,Km2,3/9/2018,2,0,0,0,0,250000,97.02312922
346,Australia,AUS,900,2008,1391,Winton,2,Queensland,Winton,0,Flood,2008-0017,2008-0017-AUS,-22.5402121,142.4236645,649500,Km2,14/1/2008,0,0,3200,0,3200,600000,83.18902296
350,Australia,AUS,900,2009,1392,Winton,2,Queensland,Winton,0,Flood,2009-0615,2009-0615-AUS,-22.5402121,142.4236645,0,Km2,13/1/2009,7,0,9000,0,9000,150000,82.89324989
364,Australia,AUS,900,2012,1393,Winton,2,Queensland,Winton,0,Flood,2012-0029,2012-0029-AUS,-22.5402121,142.4236645,761154,Km2,22/1/2012,2,0,13000,0,13000,225000,88.71096898
1652,China,CHN,710,2014,4778,Xinjiang Uygur,1,Xinjiang Uygur,Winjiang,0,Flood,2014-0406,2014-0406-CHN,41.11196232,85.20363342,0,Km2,10/7/2014,24,0,61000,0,61000,0,91.47061409
01-1008,Namibia,NAM,565,2006,28026,Khomas,1,Khomas,Windhoek,0,Flood,2006-0024,2006-0024-NAM,-22.91604294,17.15283862,0,Km2,1/1/2006,0,0,200,0,200,0,77.89139999
6973,United States,USA,2,2005,26101,Windham,2,Connecticut,Windham,0,Flood,2005-0583,2005-0583-USA,41.82886323,-71.98745883,38290,Km2,8/10/2005,11,0,3000,0,3000,0,75.45719958
3096,Indonesia,IDN,850,2002,9871,Kepulauan Yapen,2,Papua,Windesi,0,Earthquake,2002-0643,2002-0643-IDN,-1.745698196,136.1741345,8,Richter,10/10/2002,8,632,8450,0,9082,0,69.50047255
361,Australia,AUS,900,2010,968,Ararat,2,Victoria,Wimmera river,0,Flood,2010-0656,2010-0656-AUS,-37.47271842,142.8431712,911256,Km2,25/12/2010,35,0,175000,0,175000,7300000,84.25273272
6516,United Kingdom,GBR,200,2007,22967,Wiltshire,2,England,Wiltshire,0,Flood,2007-0278,2007-0278-GBR,51.29828744,-1.942763236,24650,Km2,20/7/2007,7,0,340000,0,340000,4000000,80.11339326
6517,United Kingdom,GBR,200,2008,22968,Wiltshire,2,England,Wiltshire,0,Flood,2008-0055,2008-0055-GBR,51.29828744,-1.942763236,55860,Km2,15/1/2008,0,0,300,0,300,0,83.18902296
6523,United Kingdom,GBR,200,2012,22969,Wiltshire,2,England,Wiltshire,0,Flood,2012-0548,2012-0548-GBR,51.29828744,-1.942763236,0,Km2,10/6/2012,0,0,0,0,0,450000,88.71096898
6527,United Kingdom,GBR,200,2012,22970,Wiltshire,2,England,Wiltshire,0,Flood,2012-0488,2012-0488-GBR,51.29828744,-1.942763236,0,Km2,23/12/2012,0,0,585,0,585,0,88.71096898
7013,United States,USA,2,2007,26099,Wilson,2,Kansas,Wilson,0,Flood,2007-0244,2007-0244-USA,37.55963847,-95.74382795,507800,Km2,26/6/2007,8,0,5000,0,5000,0,80.11339326
353,Australia,AUS,900,2009,1390,Willoughby,2,New South Wales,Willoughby,0,Flood,2009-0589,2009-0589-AUS,-33.80093182,151.1982086,149300,Km2,25/12/2009,0,0,200,0,200,0,82.89324989
7013,United States,USA,2,2007,26098,Williamson,2,Texas,Williamson,0,Flood,2007-0244,2007-0244-USA,37.73278208,-88.92983506,507800,Km2,26/6/2007,8,0,5000,0,5000,0,80.11339326
391,Austria,AUT,305,2002,1434,Wien,1,Wien,Wien,0,Flood,2002-0489,2002-0489-AUT,48.21153238,16.38075732,0,Km2,12/8/2002,9,0,60000,0,60000,2400000,69.50047255
3405,Ireland,IRL,205,2002,10337,Wicklow,1,Wicklow,Wicklow,0,Flood,2002-0773,2002-0773-IRL,52.98298011,-6.354449071,0,Km2,14/11/2002,0,0,300,0,300,0,69.50047255
7013,United States,USA,2,2007,26092,Wichita,2,Texas,Wichita Falls,0,Flood,2007-0244,2007-0244-USA,38.48182286,-101.3478189,507800,Km2,26/6/2007,8,0,5000,0,5000,0,80.11339326
6240,Thailand,THA,800,2004,22084,Wiang Chai,2,Chiang Rai,Wiang Chai,0,Flood,2004-0441,2004-0441-THA,19.86643164,99.99412026,154400,Km2,6/8/2004,9,0,500000,0,500000,0,72.98112921
5954,Sudan,SDN,625,1996,20965,White Nile,1,White Nile,White Nile state,0,Flood,1996-0187,1996-0187-SDN,13.40506842,32.35100786,0,Km2,13/8/1996,52,18500,46000,47700,112200,0,60.60402838
5949,Sudan,SDN,625,1988,20964,White Nile,1,White Nile,White Nile,0,Flood,1988-0359,1988-0359-SDN,13.40506842,32.35100786,0,Km2,1/8/1988,96,0,1500000,1000000,2500000,0,45.69289676
5957,Sudan,SDN,625,1998,20966,White Nile,1,White Nile,White Nile,0,Flood,1998-0251,1998-0251-SDN,13.40506842,32.35100786,1700,Km2,28/8/1998,103,0,900000,100000,1000000,40000,62.98350111
5958,Sudan,SDN,625,1999,20967,White Nile,1,White Nile,White Nile,0,Flood,1999-0264,1999-0264-SDN,13.40506842,32.35100786,0,Km2,1/8/1999,36,0,100000,0,100000,0,64.36159282
5962,Sudan,SDN,625,2002,20968,White Nile,1,White Nile,White Nile,0,Flood,2002-0515,2002-0515-SDN,13.40506842,32.35100786,0,Km2,3/8/2002,0,0,100000,0,100000,0,69.50047255
5964,Sudan,SDN,625,2003,20969,White Nile,1,White Nile,White NIle,0,Flood,2003-0368,2003-0368-SDN,13.40506842,32.35100786,0,Km2,28/7/2003,20,56,325000,0,325056,184000,71.07819758
5969,Sudan,SDN,625,2007,20970,White Nile,1,White Nile,White Nile,0,Flood,2007-0261,2007-0261-SDN,13.40506842,32.35100786,1591000,Km2,3/7/2007,150,335,365000,200000,565335,300000,80.11339326
5973,Sudan,SDN,625,2010,20971,White Nile,1,White Nile,White Nile,0,Flood,2010-0579,2010-0579-SDN,13.40506842,32.35100786,0,Km2,1/7/2010,3,12,16350,0,16362,0,84.25273272
5976,Sudan,SDN,625,2012,20972,White Nile,1,White Nile,White Nile,0,Flood,2012-0280,2012-0280-SDN,13.40506842,32.35100786,0,Km2,1/8/2012,35,135,135000,0,135135,0,88.71096898
5977,Sudan,SDN,625,2013,20973,White Nile,1,White Nile,White Nile,0,Flood,2013-0280,2013-0280-SDN,13.40506842,32.35100786,645400,Km2,1/8/2013,76,133,500000,0,500133,7000,90.01044002
5978,Sudan,SDN,625,2014,20974,White Nile,1,White Nile,White Nile,0,Flood,2014-0264,2014-0264-SDN,13.40506842,32.35100786,0,Km2,25/7/2014,39,204,266000,0,266204,0,91.47061409
6515,United Kingdom,GBR,200,2007,22833,Merseyside,2,England,Whiston,0,Flood,2007-0247,2007-0247-GBR,53.46806288,-2.874190916,27720,Km2,25/6/2007,6,0,0,30000,30000,4000000,80.11339326
1012,Canada,CAN,20,2003,3538,Whistler,3,British Columbia,Whistler,0,Flood,2003-0511,2003-0511-CAN,50.09671519,-122.966902,0,Km2,17/10/2003,2,0,800,0,800,15000,71.07819758
6939,United States,USA,2,2003,26088,Whatcom,2,Washington,Whatcom,0,Flood,2003-0511,2003-0511-USA,48.82564286,-121.7206212,0,Km2,17/10/2003,0,0,0,0,0,0,71.07819758
4547,New Zealand,NZL,920,2005,14505,Whakatane,2,Bay Of Plenty,Whakatane District,0,Flood,2005-0302,2005-0302-NZL,-38.31522709,176.8582987,630,Km2,18/5/2005,0,0,0,400,400,72000,75.45719958
4833,Papua New Guinea,PNG,910,2002,15428,Wewak,2,East Sepik,Wewak,0,Earthquake,2002-0577,2002-0577-PNG,-3.604775454,143.5716006,8,Richter,8/9/2002,4,70,4400,0,4470,0,69.50047255
3500,Jamaica,JAM,51,1986,10691,Westmoreland,1,Westmoreland,Westmoreland,0,Flood,1986-0060,1986-0060-JAM,18.25192891,-78.09190111,160,Km2,15/5/1986,54,0,40000,0,40000,76000,42.35069857
3504,Jamaica,JAM,51,1993,10693,Westmoreland,1,Westmoreland,Westmoreland,0,Flood,1993-0036,1993-0036-JAM,18.25192891,-78.09190111,0,Km2,21/5/1993,9,0,4290,82,4372,11000,55.8161073
4531,New Zealand,NZL,920,1991,14504,Westland,2,West Coast,Westland,0,Flood,1991-0687,1991-0687-NZL,-43.55166214,169.9098579,0,Km2,2/4/1991,0,0,75,0,75,0,52.62202002
5319,Philippines,PHL,840,2011,15825,Aklan,1,Aklan,Western Visayas,0,Flood,2011-0540,2011-0540-PHL,11.61199862,122.2459981,0,Km2,25/12/2011,12,9,171800,0,171809,0,86.91246502
5319,Philippines,PHL,840,2011,15940,Antique,1,Antique,Western Visayas,0,Flood,2011-0540,2011-0540-PHL,11.12069964,122.0700756,0,Km2,25/12/2011,12,9,171800,0,171809,0,86.91246502
5319,Philippines,PHL,840,2011,16596,Capiz,1,Capiz,Western Visayas,0,Flood,2011-0540,2011-0540-PHL,11.36709361,122.6325366,0,Km2,25/12/2011,12,9,171800,0,171809,0,86.91246502
5319,Philippines,PHL,840,2011,17026,Guimaras,1,Guimaras,Western Visayas,0,Flood,2011-0540,2011-0540-PHL,10.56813836,122.615051,0,Km2,25/12/2011,12,9,171800,0,171809,0,86.91246502
5319,Philippines,PHL,840,2011,17155,Iloilo,1,Iloilo,Western Visayas,0,Flood,2011-0540,2011-0540-PHL,11.0057335,122.6032448,0,Km2,25/12/2011,12,9,171800,0,171809,0,86.91246502
5319,Philippines,PHL,840,2011,17889,Negros Occidental,1,Negros Occidental,Western Visayas,0,Flood,2011-0540,2011-0540-PHL,10.29941584,122.9826996,0,Km2,25/12/2011,12,9,171800,0,171809,0,86.91246502
5320,Philippines,PHL,840,2012,15826,Aklan,1,Aklan,Western Visayas,0,Flood,2012-0009,2012-0009-PHL,11.61199862,122.2459981,0,Km2,17/1/2012,4,0,88570,0,88570,0,88.71096898
5320,Philippines,PHL,840,2012,15941,Antique,1,Antique,Western Visayas,0,Flood,2012-0009,2012-0009-PHL,11.12069964,122.0700756,0,Km2,17/1/2012,4,0,88570,0,88570,0,88.71096898
5320,Philippines,PHL,840,2012,16597,Capiz,1,Capiz,Western Visayas,0,Flood,2012-0009,2012-0009-PHL,11.36709361,122.6325366,0,Km2,17/1/2012,4,0,88570,0,88570,0,88.71096898
5320,Philippines,PHL,840,2012,17027,Guimaras,1,Guimaras,Western Visayas,0,Flood,2012-0009,2012-0009-PHL,10.56813836,122.615051,0,Km2,17/1/2012,4,0,88570,0,88570,0,88.71096898
5320,Philippines,PHL,840,2012,17156,Iloilo,1,Iloilo,Western Visayas,0,Flood,2012-0009,2012-0009-PHL,11.0057335,122.6032448,0,Km2,17/1/2012,4,0,88570,0,88570,0,88.71096898
5320,Philippines,PHL,840,2012,17890,Negros Occidental,1,Negros Occidental,Western Visayas,0,Flood,2012-0009,2012-0009-PHL,10.29941584,122.9826996,0,Km2,17/1/2012,4,0,88570,0,88570,0,88.71096898
5324,Philippines,PHL,840,2012,15827,Aklan,1,Aklan,Western Visayas,0,Flood,2012-0396,2012-0396-PHL,11.61199862,122.2459981,0,Km2,27/3/2012,11,0,0,4835,4835,2000,88.71096898
5324,Philippines,PHL,840,2012,15942,Antique,1,Antique,Western Visayas,0,Flood,2012-0396,2012-0396-PHL,11.12069964,122.0700756,0,Km2,27/3/2012,11,0,0,4835,4835,2000,88.71096898
5324,Philippines,PHL,840,2012,16598,Capiz,1,Capiz,Western Visayas,0,Flood,2012-0396,2012-0396-PHL,11.36709361,122.6325366,0,Km2,27/3/2012,11,0,0,4835,4835,2000,88.71096898
5324,Philippines,PHL,840,2012,17028,Guimaras,1,Guimaras,Western Visayas,0,Flood,2012-0396,2012-0396-PHL,10.56813836,122.615051,0,Km2,27/3/2012,11,0,0,4835,4835,2000,88.71096898
5324,Philippines,PHL,840,2012,17157,Iloilo,1,Iloilo,Western Visayas,0,Flood,2012-0396,2012-0396-PHL,11.0057335,122.6032448,0,Km2,27/3/2012,11,0,0,4835,4835,2000,88.71096898
5324,Philippines,PHL,840,2012,17892,Negros Occidental,1,Negros Occidental,Western Visayas,0,Flood,2012-0396,2012-0396-PHL,10.29941584,122.9826996,0,Km2,27/3/2012,11,0,0,4835,4835,2000,88.71096898
1068,Chad,TCD,483,2001,3655,Tandjile Ouest,2,Tandjile,Western Tandjil,0,Flood,2001-0521,2001-0521-TCD,9.352009746,15.79087116,104300,Km2,19/8/2001,100,0,175763,0,175763,1000,68.41537906
5291,Philippines,PHL,840,2010,18503,Samar,1,Samar,Western Samar,0,Flood,2010-0659,2010-0659-PHL,11.84281136,124.9405475,10773,Km2,24/12/2010,110,13,1972433,0,1972446,47411,84.25273272
5294,Philippines,PHL,840,2011,18504,Samar,1,Samar,Western Samar,0,Flood,2011-0087,2011-0087-PHL,11.84281136,124.9405475,25963,Km2,14/3/2011,16,1,241776,0,241777,280,86.91246502
7468,Zambia,ZMB,551,2007,27136,Western,1,Western,Western province,0,Flood,2007-0633,2007-0633-ZMB,-15.64397925,23.67196792,2180,Km2,30/12/2007,10,0,34766,0,34766,0,80.11339326
6793,United States,USA,2,1996,23074,Allegheny,2,Pennsylvania,Western Pennsylvania,0,Flood,1996-0494,1996-0494-USA,40.47013083,-79.98190112,53520,Km2,18/7/1996,2,0,115,0,115,20000,60.60402838
1036,Canada,CAN,20,2012,3475,New Brunswick,1,New Brunswick,Western New Brunswick,0,Flood,2012-0068,2012-0068-CAN,46.61491495,-66.3794014,544053,Km2,25/3/2012,0,0,1500,0,1500,34000,88.71096898
2423,Greece,GRC,350,2014,7045,West Macedonia,2,Epirus And Western Macedonia,Western Macedonia,0,Flood,2014-0419,2014-0419-GRC,40.36149325,21.48078811,0,Km2,24/10/2014,0,0,0,0,0,0,91.47061409
5962,Sudan,SDN,625,2002,20879,En Nuhud,2,North Kurdufan,Western Kordofan,0,Flood,2002-0515,2002-0515-SDN,13.16957376,28.5484714,0,Km2,3/8/2002,0,0,100000,0,100000,0,69.50047255
3757,Kenya,KEN,501,2010,11846,Kakamega,1,Kakamega,Western Kenya,0,Flood,2010-0285,2010-0285-KEN,0.33572287,34.67799656,196100,Km2,8/5/2010,100,0,70000,0,70000,0,84.25273272
3763,Kenya,KEN,501,2013,11807,Busia,1,Busia,Western Kenya,0,Flood,2013-0123,2013-0123-KEN,0.393930648,34.19397582,73170,Km2,10/3/2013,96,20,100000,0,100020,36000,90.01044002
3763,Kenya,KEN,501,2013,11848,Kakamega,1,Kakamega,Western Kenya,0,Flood,2013-0123,2013-0123-KEN,0.33572287,34.67799656,73170,Km2,10/3/2013,96,20,100000,0,100020,36000,90.01044002
4818,Papua New Guinea,PNG,910,1983,15426,Western Highlands,1,Western Highlands,Western Highlands,0,Flood,1983-0441,1983-0441-PNG,-5.987663448,144.1449632,0,Km2,6/3/1983,45,0,0,0,0,0,38.4836513
4834,Papua New Guinea,PNG,910,2004,15427,Western Highlands,1,Western Highlands,Western Highlands,0,Flood,2004-0104,2004-0104-PNG,-5.987663448,144.1449632,2000,Km2,5/3/2004,0,0,10000,0,10000,0,72.98112921
17-Jan,Afghanistan,AFG,700,2011,29053,Hirat,1,Hirat,Western Herat,0,Flood,2011-0042,2011-0042-AFG,34.19074927,62.12151619,63337,Km2,10/2/2011,25,65,3000,0,3065,0,86.91246502
1228,China,CHN,710,1992,4147,Guizhou,1,Guizhou,Western Guizhou,0,Flood,1992-0210,1992-0210-CHN,26.81558477,106.874538,491100,Km2,12/6/1992,88,300,0,435000,435300,3700,54.21584465
2423,Greece,GRC,350,2014,7044,West Greece,2,Peloponnese; Western Greece And The Ionian Islands,Western Greece,0,Flood,2014-0419,2014-0419-GRC,38.28216056,21.57299253,0,Km2,24/10/2014,0,0,0,0,0,0,91.47061409
2420,Greece,GRC,350,2012,7043,West Greece,2,Peloponnese; Western Greece And The Ionian Islands,Western Greece,0,Flood,2012-0080,2012-0080-GRC,38.28216056,21.57299253,9251,Km2,3/2/2012,1,0,200,0,200,0,88.71096898
5780,South Africa,ZAF,560,2011,20274,Western Cape,1,Western Cape,Western cape,0,Flood,2011-0100,2011-0100-ZAF,-33.01441178,20.61534006,124636,Km2,1/1/2011,40,321,200000,0,200321,211000,86.91246502
2148,Fiji,FJI,950,2000,6467,Western,1,Western,Western,0,Flood,2000-0806,2000-0806-FJI,-17.74281554,177.7665697,0,Km2,6/12/2000,4,0,0,0,0,0,66.53499421
2152,Fiji,FJI,950,2004,6470,Western,1,Western,Western,0,Flood,2004-0294,2004-0294-FJI,-17.74281554,177.7665697,0,Km2,5/6/2004,0,0,600,0,600,0,72.98112921
2156,Fiji,FJI,950,2007,6472,Western,1,Western,Western,0,Flood,2007-0108,2007-0108-FJI,-17.74281554,177.7665697,1690,Km2,3/2/2007,1,0,900,0,900,30000,80.11339326
2157,Fiji,FJI,950,2007,6473,Western,1,Western,Western,0,Flood,2007-0592,2007-0592-FJI,-17.74281554,177.7665697,0,Km2,9/3/2007,5,0,0,0,0,7000,80.11339326
2165,Fiji,FJI,950,2012,6478,Western,1,Western,Western,0,Flood,2012-0069,2012-0069-FJI,-17.74281554,177.7665697,0,Km2,29/3/2012,5,0,14984,0,14984,72000,88.71096898
2269,Gambia,GMB,420,2010,6708,Western,1,Western,Western,0,Flood,2010-0454,2010-0454-GMB,13.24689579,-16.40291353,0,Km2,15/7/2010,8,0,21194,0,21194,0,84.25273272
2363,Ghana,GHA,452,2007,6936,Western,1,Western,Western,0,Flood,2007-0441,2007-0441-GHA,5.752156036,-2.415531747,0,Km2,10/8/2007,56,0,332600,0,332600,0,80.11339326
3742,Kenya,KEN,501,2006,11803,Busia,1,Busia,western,0,Flood,2006-0234,2006-0234-KEN,0.393930648,34.19397582,0,Km2,25/4/2006,8,0,13000,0,13000,0,77.89139999
3742,Kenya,KEN,501,2006,11845,Kakamega,1,Kakamega,western,0,Flood,2006-0234,2006-0234-KEN,0.33572287,34.67799656,0,Km2,25/4/2006,8,0,13000,0,13000,0,77.89139999
5349,Philippines,PHL,840,2013,15830,Aklan,1,Aklan,Western,0,Flood,2013-0434,2013-0434-PHL,11.61199862,122.2459981,0,Km2,4/10/2013,20,0,207971,0,207971,1988,90.01044002
5349,Philippines,PHL,840,2013,15945,Antique,1,Antique,Western,0,Flood,2013-0434,2013-0434-PHL,11.12069964,122.0700756,0,Km2,4/10/2013,20,0,207971,0,207971,1988,90.01044002
5349,Philippines,PHL,840,2013,16601,Capiz,1,Capiz,Western,0,Flood,2013-0434,2013-0434-PHL,11.36709361,122.6325366,0,Km2,4/10/2013,20,0,207971,0,207971,1988,90.01044002
5349,Philippines,PHL,840,2013,17161,Iloilo,1,Iloilo,Western,0,Flood,2013-0434,2013-0434-PHL,11.0057335,122.6032448,0,Km2,4/10/2013,20,0,207971,0,207971,1988,90.01044002
5349,Philippines,PHL,840,2013,17896,Negros Occidental,1,Negros Occidental,Western,0,Flood,2013-0434,2013-0434-PHL,10.29941584,122.9826996,0,Km2,4/10/2013,20,0,207971,0,207971,1988,90.01044002
5877,Sri Lanka,LKA,780,1995,20574,Colombo,1,Colombo,Western,0,Flood,1995-0108,1995-0108-LKA,6.871037262,80.02204516,27550,Km2,7/5/1995,3,0,0,120000,120000,400,58.87818329
5877,Sri Lanka,LKA,780,1995,20614,Gampaha,1,Gampaha,Western,0,Flood,1995-0108,1995-0108-LKA,7.121968182,80.01627454,27550,Km2,7/5/1995,3,0,0,120000,120000,400,58.87818329
5877,Sri Lanka,LKA,780,1995,20654,Kalutara,1,Kalutara,Western,0,Flood,1995-0108,1995-0108-LKA,6.577261779,80.12698836,27550,Km2,7/5/1995,3,0,0,120000,120000,400,58.87818329
5880,Sri Lanka,LKA,780,1998,20576,Colombo,1,Colombo,Western,0,Flood,1998-0226,1998-0226-LKA,6.871037262,80.02204516,75,Km2,17/7/1998,1,0,135000,0,135000,0,62.98350111
5880,Sri Lanka,LKA,780,1998,20615,Gampaha,1,Gampaha,Western,0,Flood,1998-0226,1998-0226-LKA,7.121968182,80.01627454,75,Km2,17/7/1998,1,0,135000,0,135000,0,62.98350111
5880,Sri Lanka,LKA,780,1998,20655,Kalutara,1,Kalutara,Western,0,Flood,1998-0226,1998-0226-LKA,6.577261779,80.12698836,75,Km2,17/7/1998,1,0,135000,0,135000,0,62.98350111
5890,Sri Lanka,LKA,780,2005,20579,Colombo,1,Colombo,Western,0,Flood,2005-0646,2005-0646-LKA,6.871037262,80.02204516,29870,Km2,21/11/2005,6,0,145000,0,145000,0,75.45719958
5890,Sri Lanka,LKA,780,2005,20618,Gampaha,1,Gampaha,Western,0,Flood,2005-0646,2005-0646-LKA,7.121968182,80.01627454,29870,Km2,21/11/2005,6,0,145000,0,145000,0,75.45719958
5890,Sri Lanka,LKA,780,2005,20659,Kalutara,1,Kalutara,Western,0,Flood,2005-0646,2005-0646-LKA,6.577261779,80.12698836,29870,Km2,21/11/2005,6,0,145000,0,145000,0,75.45719958
5912,Sri Lanka,LKA,780,2013,20588,Colombo,1,Colombo,Western,0,Flood,2013-0220,2013-0220-LKA,6.871037262,80.02204516,0,Km2,8/6/2013,58,15,17199,0,17214,2000,90.01044002
5912,Sri Lanka,LKA,780,2013,20627,Gampaha,1,Gampaha,Western,0,Flood,2013-0220,2013-0220-LKA,7.121968182,80.01627454,0,Km2,8/6/2013,58,15,17199,0,17214,2000,90.01044002
5912,Sri Lanka,LKA,780,2013,20668,Kalutara,1,Kalutara,Western,0,Flood,2013-0220,2013-0220-LKA,6.577261779,80.12698836,0,Km2,8/6/2013,58,15,17199,0,17214,2000,90.01044002
5913,Sri Lanka,LKA,780,2014,20589,Colombo,1,Colombo,Western,0,Flood,2014-0181,2014-0181-LKA,6.871037262,80.02204516,0,Km2,4/6/2014,27,9,104000,0,104009,2000,91.47061409
5913,Sri Lanka,LKA,780,2014,20628,Gampaha,1,Gampaha,Western,0,Flood,2014-0181,2014-0181-LKA,7.121968182,80.01627454,0,Km2,4/6/2014,27,9,104000,0,104009,2000,91.47061409
5913,Sri Lanka,LKA,780,2014,20669,Kalutara,1,Kalutara,Western,0,Flood,2014-0181,2014-0181-LKA,6.577261779,80.12698836,0,Km2,4/6/2014,27,9,104000,0,104009,2000,91.47061409
7460,Zambia,ZMB,551,1989,27133,Western,1,Western,western,0,Flood,1989-0028,1989-0028-ZMB,-15.64397925,23.67196792,0,Km2,23/1/1989,0,0,800000,0,800000,0,47.89849737
7466,Zambia,ZMB,551,2007,27135,Western,1,Western,Western,0,Flood,2007-0010,2007-0010-ZMB,-15.64397925,23.67196792,290,Km2,10/1/2007,4,0,1400000,0,1400000,0,80.11339326
5597,Saudi Arabia,SAU,670,2012,19754,Makkah,1,Makkah,Western,0,Flood,2012-0188,2012-0188-SAU,21.62630844,41.2082227,233126,Km2,14/4/2012,19,0,0,0,0,0,88.71096898
07-255,Sudan,SDN,625,2018,45070,West Darfur,1,West Darfur,Westenr Darfur,0,Flood,2018-0221,2018-0221-SDN,13.51149217,22.6285422,210194,Km2,18/6/2018,0,0,350,2400,2750,0,97.02312922
5487,Russia,RUS,365,1994,19524,Novosibirsk,1,Novosibirsk,Westen Siberua,0,Flood,1994-0088,1994-0088-RUS,55.26841307,79.76574943,350,Km2,1/3/1994,1,0,10204,0,10204,0,57.27148263
6505,United Kingdom,GBR,200,2002,22960,West Yorkshire,2,England,West Yorkshire,0,Flood,2002-0463,2002-0463-GBR,53.74245411,-1.67940363,0,Km2,20/7/2002,1,0,200,0,200,0,69.50047255
6517,United Kingdom,GBR,200,2008,22964,West Yorkshire,2,England,West Yorkshire,0,Flood,2008-0055,2008-0055-GBR,53.74245411,-1.67940363,55860,Km2,15/1/2008,0,0,300,0,300,0,83.18902296
6524,United Kingdom,GBR,200,2012,22965,West Yorkshire,2,England,West Yorkshire,0,Flood,2012-0549,2012-0549-GBR,53.74245411,-1.67940363,0,Km2,23/6/2012,1,0,0,0,0,785000,88.71096898
6683,United States,USA,2,1991,26059,West Virginia,1,West Virginia,West Virginia,0,Flood,1991-0493,1991-0493-USA,38.64302961,-80.61171605,0,Km2,8/4/1991,0,0,0,0,0,0,52.62202002
6840,United States,USA,2,1998,26067,West Virginia,1,West Virginia,West virginia,0,Flood,1998-0199,1998-0199-USA,38.64302961,-80.61171605,0,Km2,24/6/1998,11,0,9000,5000,14000,469000,62.98350111
6903,United States,USA,2,2001,26071,West Virginia,1,West Virginia,West Virginia,0,Flood,2001-0460,2001-0460-USA,38.64302961,-80.61171605,8530,Km2,8/7/2001,2,0,10500,4500,15000,20000,68.41537906
6911,United States,USA,2,2002,26072,West Virginia,1,West Virginia,West Virginia,0,Flood,2002-0183,2002-0183-USA,38.64302961,-80.61171605,35390,Km2,17/3/2002,7,0,0,0,0,0,69.50047255
6915,United States,USA,2,2002,26075,West Virginia,1,West Virginia,West Virginia,0,Flood,2002-0266,2002-0266-USA,38.64302961,-80.61171605,0,Km2,2/5/2002,9,0,1000,0,1000,13000,69.50047255
7043,United States,USA,2,2009,26084,West Virginia,1,West Virginia,West Virginia,0,Flood,2009-0184,2009-0184-USA,38.64302961,-80.61171605,16460,Km2,3/5/2009,0,0,0,900,900,0,82.89324989
6523,United Kingdom,GBR,200,2012,22958,West Sussex,2,England,West Sussex,0,Flood,2012-0548,2012-0548-GBR,50.95369976,-0.4864153,0,Km2,10/6/2012,0,0,0,0,0,450000,88.71096898
3158,Indonesia,IDN,850,2008,9133,Bengkulu,2,Bengkulu,West Sumatran Bengkulu,0,Flood,2008-0526,2008-0526-IDN,-3.56038621,102.3464653,0,Km2,15/11/2008,33,0,83000,1420,84420,0,83.18902296
3022,Indonesia,IDN,850,1987,9766,Sumatera Barat,1,Sumatera Barat,West Sumatra,0,Flood,1987-0228,1987-0228-IDN,-0.851751986,100.4667212,0,Km2,14/12/1987,38,84,0,800,884,0,43.90266239
3158,Indonesia,IDN,850,2008,9711,Sulawesi Barat,1,Sulawesi Barat,West Sulawasi,0,Flood,2008-0526,2008-0526-IDN,-2.460613094,119.339167,0,Km2,15/11/2008,33,0,83000,1420,84420,0,83.18902296
1141,China,CHN,710,1980,4606,Shanghai,1,Shanghai,West Shangai,0,Flood,1980-0247,1980-0247-CHN,31.19660491,121.4545606,12140,Km2,2/9/1980,0,0,0,0,0,0,31.84110657
4206,Mexico,MEX,70,1999,13309,Puebla,1,Puebla,West Puebla,0,Earthquake,1999-0208,1999-0208-MEX,19.03765135,-97.81565517,7,Richter,15/6/1999,15,200,16000,0,16200,226800,64.36159282
04-412,Kenya,KEN,501,2008,39519,West Pokot,1,West Pokot,West Pokot district,0,Landslide,2008-0513,2008-0513-KEN,1.730666386,35.24706968,0,0,8/11/2008,10,20,0,0,20,0,83.18902296
3739,Kenya,KEN,501,2005,12011,West Pokot,1,West Pokot,West Pokot,0,Flood,2005-0260,2005-0260-KEN,1.730128266,35.24732925,0,Km2,18/5/2005,5,0,10000,0,10000,0,75.45719958
3749,Kenya,KEN,501,2008,12012,West Pokot,1,West Pokot,West Pokot,0,Flood,2008-0129,2008-0129-KEN,1.730128266,35.24732925,21280,Km2,20/3/2008,2,0,10000,0,10000,0,83.18902296
3755,Kenya,KEN,501,2009,12013,West Pokot,1,West Pokot,West Pokot,0,Flood,2009-0597,2009-0597-KEN,1.730128266,35.24732925,0,Km2,24/12/2009,40,0,91350,0,91350,0,82.89324989
3762,Kenya,KEN,501,2013,12014,West Pokot,1,West Pokot,West Pokot,0,Flood,2013-0305,2013-0305-KEN,1.730128266,35.24732925,71113,Km2,13/1/2013,18,0,10780,0,10780,0,90.01044002
3763,Kenya,KEN,501,2013,12015,West Pokot,1,West Pokot,West Pokot,0,Flood,2013-0123,2013-0123-KEN,1.730128266,35.24732925,73170,Km2,10/3/2013,96,20,100000,0,100020,36000,90.01044002
3050,Indonesia,IDN,850,1994,9552,Nusa Tenggara Barat,1,Nusa Tenggara Barat,West Nusa Tengarra province,0,Flood,1994-0783,1994-0783-IDN,-8.606664515,117.5074521,1820,Km2,12/7/1994,5,0,50000,0,50000,1700,57.27148263
05-693,Papua New Guinea,PNG,910,2002,42657,East New Britain,1,East New Britain,West New Britain province,0,Volcanic Activity,2002-0492,2002-0492-PNG,-5.090799318,151.6490479,0,0,2/7/2002,0,0,13000,0,13000,0,69.50047255
4820,Papua New Guinea,PNG,910,1985,15425,West New Britain,1,West New Britain,West New Britain,0,Earthquake,1985-0227,1985-0227-PNG,-5.753983155,149.8365271,7,Richter,11/5/1985,0,0,0,0,0,1000,41.56182689
6514,United Kingdom,GBR,200,2007,22953,West Midlands,2,England,West Midlands,0,Flood,2007-0201,2007-0201-GBR,52.48128982,-1.869236838,23110,Km2,15/6/2007,1,0,200,0,200,448000,80.11339326
6523,United Kingdom,GBR,200,2012,22954,West Midlands,2,England,West Midlands,0,Flood,2012-0548,2012-0548-GBR,52.48128982,-1.869236838,0,Km2,10/6/2012,0,0,0,0,0,450000,88.71096898
6524,United Kingdom,GBR,200,2012,22955,West Midlands,2,England,West Midlands,0,Flood,2012-0549,2012-0549-GBR,52.48128982,-1.869236838,0,Km2,23/6/2012,1,0,0,0,0,785000,88.71096898
01-514,Ghana,GHA,452,2008,29750,West Mamprusi,2,Northern,West Mamprusi,0,Flood,2008-0630,2008-0630-GHA,10.29697012,-1.064879308,0,Km2,1/7/2008,0,0,58000,0,58000,0,83.18902296
