id,country,iso3,gwno,year,geo_id,geolocation,level,adm1,adm2,adm3,location,historical,disastertype,disasterno,Dis No,latitude,longitude,Dis Mag Value,Dis Mag Scale,dateTotal Deaths,No Injured,No Affected,No Homeless,Total Affected,Total Damages ('000 US$),CPI
109,Albania,ALB,339,2009,346,Ana E Malit,3,Shkoder,Shkodres,Ana E Malit,Ana E Malit,0,Flood,2009-0631,2009-0631-ALB,42.02094846,19.4183173,0,Km2,27/12/2009,0,0,6600,0,6600,0,82.89324989
109,Albania,ALB,339,2009,351,Bushat,3,Shkoder,Shkodres,Bushat,Bushat,0,Flood,2009-0631,2009-0631-ALB,41.95929412,19.51430874,0,Km2,27/12/2009,0,0,6600,0,6600,0,82.89324989
175,Angola,AGO,540,2001,760,Onjiva,3,Cunene,Cuanhama,Onjiva,Onjiva,0,Flood,2001-0146,2001-0146-AGO,-17.09348436,15.66575761,24780,Km2,2/4/2001,48,0,39928,0,39928,0,68.41537906
187,Angola,AGO,540,2009,710,Evale,3,Cunene,Cuanhama,Evale,Evale,0,Flood,2009-0092,2009-0092-AGO,-16.53153266,15.77398677,0,Km2,1/3/2009,60,0,220000,0,220000,0,82.89324989
187,Angola,AGO,540,2009,749,Mupa,3,Cunene,Cuvelai,Mupa,Mupa,0,Flood,2009-0092,2009-0092-AGO,-16.20006451,15.84418871,0,Km2,1/3/2009,60,0,220000,0,220000,0,82.89324989
187,Angola,AGO,540,2009,761,Onjiva,3,Cunene,Cuanhama,Onjiva,Onjiva,0,Flood,2009-0092,2009-0092-AGO,-17.09348436,15.66575761,0,Km2,1/3/2009,60,0,220000,0,220000,0,82.89324989
189,Angola,AGO,540,2010,711,Evale,3,Cunene,Cuanhama,Evale,Evale,0,Flood,2010-0105,2010-0105-AGO,-16.53153266,15.77398677,274100,Km2,1/3/2010,7,11,110875,0,110886,0,84.25273272
189,Angola,AGO,540,2010,750,Mupa,3,Cunene,Cuvelai,Mupa,Mupa,0,Flood,2010-0105,2010-0105-AGO,-16.20006451,15.84418871,274100,Km2,1/3/2010,7,11,110875,0,110886,0,84.25273272
568,Bangladesh,BGD,771,2000,1873,Hathazari,3,Chittagong,Chittagong,Hathazari,Hathazari,0,Flood,2000-0373,2000-0373-BGD,22.51490173,91.79844975,17000,Km2,24/6/2000,11,50,200000,0,200050,0,66.53499421
568,Bangladesh,BGD,771,2000,2121,Patiya,3,Chittagong,Chittagong,Patiya,Patiya,0,Flood,2000-0373,2000-0373-BGD,22.31876551,91.96625756,17000,Km2,24/6/2000,11,50,200000,0,200050,0,66.53499421
568,Bangladesh,BGD,771,2000,2195,Satkania,3,Chittagong,Chittagong,Satkania,Satkania,0,Flood,2000-0373,2000-0373-BGD,22.12083269,92.06191617,17000,Km2,24/6/2000,11,50,200000,0,200050,0,66.53499421
593,Bangladesh,BGD,771,2004,1687,Burichang,3,Chittagong,Comilla,Burichang,Burichang,0,Flood,2004-0470,2004-0470-BGD,23.53178972,91.1169815,0,Km2,11/9/2004,20,0,600000,0,600000,0,72.98112921
593,Bangladesh,BGD,771,2004,1695,Chauddagram,3,Chittagong,Comilla,Chauddagram,Chouddogram,0,Flood,2004-0470,2004-0470-BGD,23.21933285,91.28705776,0,Km2,11/9/2004,20,0,600000,0,600000,0,72.98112921
610,Bangladesh,BGD,771,2006,1917,Kanaighat,3,Sylhet,Sylhet,Kanaighat,Kanaighat,0,Flood,2006-0262,2006-0262-BGD,24.99543198,92.22285389,0,Km2,31/5/2006,0,0,76000,0,76000,0,77.89139999
610,Bangladesh,BGD,771,2006,2299,Zakiganj,3,Sylhet,Sylhet,Zakiganj,Zakiganj,0,Flood,2006-0262,2006-0262-BGD,24.92887963,92.37380049,0,Km2,31/5/2006,0,0,76000,0,76000,0,77.89139999
692,Belgium,BEL,211,2011,2357,Dinant,3,Wallonie,Namur,Dinant,Dinant,0,Flood,2011-0012,2011-0012-BEL,50.16258678,5.03355038,0,Km2,8/1/2011,0,0,0,0,0,0,86.91246502
746,Bolivia,BOL,145,2006,2521,Papel Pampa,3,La Paz,Gualberto Villarroel,Papel Pampa,Papel Pampa,0,Flood,2006-0039,2006-0039-BOL,-17.68585106,-67.70626762,955800,Km2,25/1/2006,25,21,126075,0,126096,35000,77.89139999
746,Bolivia,BOL,145,2006,2527,San Pedro De Curahuara,3,La Paz,Gualberto Villarroel,San Pedro De Curahuara,San Pedro de Curahuara,0,Flood,2006-0039,2006-0039-BOL,-17.61764106,-67.96341598,955800,Km2,25/1/2006,25,21,126075,0,126096,35000,77.89139999
756,Bosnia And Herzegovina,BIH,346,2004,2582,Bugojno,3,Federacija Bosna I Hercegovina,Central Bosnia,Bugojno,Bugojno,0,Flood,2004-0169,2004-0169-BIH,44.03226915,17.44797281,47170,Km2,23/3/2004,0,0,3000,0,3000,0,72.98112921
756,Bosnia And Herzegovina,BIH,346,2004,2603,Jajce,3,Federacija Bosna I Hercegovina,Central Bosnia,Jajce,Jajce,0,Flood,2004-0169,2004-0169-BIH,44.33725409,17.29870747,47170,Km2,23/3/2004,0,0,3000,0,3000,0,72.98112921
757,Bosnia And Herzegovina,BIH,346,2004,2583,Bugojno,3,Federacija Bosna I Hercegovina,Central Bosnia,Bugojno,Bugojno,0,Flood,2004-0163,2004-0163-BIH,44.03226915,17.44797281,2040,Km2,6/4/2004,0,0,275000,0,275000,0,72.98112921
757,Bosnia And Herzegovina,BIH,346,2004,2595,Donji Vakuf,3,Federacija Bosna I Hercegovina,Central Bosnia,Donji Vakuf,Donji Vakuf,0,Flood,2004-0163,2004-0163-BIH,44.15461618,17.35910439,2040,Km2,6/4/2004,0,0,275000,0,275000,0,72.98112921
757,Bosnia And Herzegovina,BIH,346,2004,2604,Jezero,3,Repuplika Srpska,Banja Luka,Jezero,Jezero,0,Flood,2004-0163,2004-0163-BIH,44.33984371,17.16684926,2040,Km2,6/4/2004,0,0,275000,0,275000,0,72.98112921
757,Bosnia And Herzegovina,BIH,346,2004,2607,Lukavac,3,Federacija Bosna I Hercegovina,Tuzla,Lukavac,Lukavac,0,Flood,2004-0163,2004-0163-BIH,44.54128441,18.42472493,2040,Km2,6/4/2004,0,0,275000,0,275000,0,72.98112921
757,Bosnia And Herzegovina,BIH,346,2004,2609,Maglaj,3,Federacija Bosna I Hercegovina,Zenica-Doboj,Maglaj,Maglaj,0,Flood,2004-0163,2004-0163-BIH,44.5438757,18.10375018,2040,Km2,6/4/2004,0,0,275000,0,275000,0,72.98112921
757,Bosnia And Herzegovina,BIH,346,2004,2621,Prijedor,3,Repuplika Srpska,Banja Luka,Prijedor,Prijedor,0,Flood,2004-0163,2004-0163-BIH,44.94905247,16.76731375,2040,Km2,6/4/2004,0,0,275000,0,275000,0,72.98112921
757,Bosnia And Herzegovina,BIH,346,2004,2624,Prnjavor,3,Repuplika Srpska,Banja Luka,Prnjavor,Prnjavor,0,Flood,2004-0163,2004-0163-BIH,44.86318866,17.62773294,2040,Km2,6/4/2004,0,0,275000,0,275000,0,72.98112921
757,Bosnia And Herzegovina,BIH,346,2004,2635,Sanski Most,3,Federacija Bosna I Hercegovina,Una-Sana,Sanski Most,Sanski Most,0,Flood,2004-0163,2004-0163-BIH,44.75264834,16.56274186,2040,Km2,6/4/2004,0,0,275000,0,275000,0,72.98112921
757,Bosnia And Herzegovina,BIH,346,2004,2640,Srbac,3,Repuplika Srpska,Banja Luka,Srbac,Srbac,0,Flood,2004-0163,2004-0163-BIH,45.0418064,17.56101931,2040,Km2,6/4/2004,0,0,275000,0,275000,0,72.98112921
757,Bosnia And Herzegovina,BIH,346,2004,2644,Travnik,3,Federacija Bosna I Hercegovina,Central Bosnia,Travnik,Travnik,0,Flood,2004-0163,2004-0163-BIH,44.27620233,17.61588411,2040,Km2,6/4/2004,0,0,275000,0,275000,0,72.98112921
758,Bosnia And Herzegovina,BIH,346,2005,2577,Bosanska Krupa,3,Federacija Bosna I Hercegovina,Una-Sana,Bosanska Krupa,Bosanska Krupa,0,Flood,2005-0695,2005-0695-BIH,44.89335896,16.17398321,0,Km2,6/12/2005,0,0,3100,0,3100,0,75.45719958
758,Bosnia And Herzegovina,BIH,346,2005,2616,Novi Grad,3,Repuplika Srpska,Banja Luka,Novi Grad,Novi GRad,0,Flood,2005-0695,2005-0695-BIH,44.98174212,16.41319161,0,Km2,6/12/2005,0,0,3100,0,3100,0,75.45719958
758,Bosnia And Herzegovina,BIH,346,2005,2622,Prijedor,3,Repuplika Srpska,Banja Luka,Prijedor,Prijedor,0,Flood,2005-0695,2005-0695-BIH,44.94905247,16.76731375,0,Km2,6/12/2005,0,0,3100,0,3100,0,75.45719958
758,Bosnia And Herzegovina,BIH,346,2005,2636,Sanski Most,3,Federacija Bosna I Hercegovina,Una-Sana,Sanski Most,Sanski Most,0,Flood,2005-0695,2005-0695-BIH,44.75264834,16.56274186,0,Km2,6/12/2005,0,0,3100,0,3100,0,75.45719958
759,Bosnia And Herzegovina,BIH,346,2009,2614,Neum,3,Federacija Bosna I Hercegovina,Herzegovina-Neretva,Neum,Neum municipality,0,Flood,2009-0081,2009-0081-BIH,42.95425306,17.76396141,20490,Km2,1/2/2009,0,0,2630,0,2630,0,82.89324989
759,Bosnia And Herzegovina,BIH,346,2009,2626,Ravno,3,Federacija Bosna I Hercegovina,Herzegovina-Neretva,Ravno,Ravno,0,Flood,2009-0081,2009-0081-BIH,42.80469192,18.03213395,20490,Km2,1/2/2009,0,0,2630,0,2630,0,82.89324989
761,Bosnia And Herzegovina,BIH,346,2010,2591,Doboj East,3,Federacija Bosna I Hercegovina,Tuzla,Doboj East,Doboj Istok,0,Flood,2010-0252,2010-0252-BIH,44.74373882,18.18140154,0,Km2,20/6/2010,0,0,14910,0,14910,87000,84.25273272
761,Bosnia And Herzegovina,BIH,346,2010,2592,Doboj South,3,Federacija Bosna I Hercegovina,Zenica-Doboj,Doboj South,Doboj Jug,0,Flood,2010-0252,2010-0252-BIH,44.69501778,18.03066341,0,Km2,20/6/2010,0,0,14910,0,14910,87000,84.25273272
761,Bosnia And Herzegovina,BIH,346,2010,2605,Kalesija,3,Federacija Bosna I Hercegovina,Tuzla,Kalesija,Kalesija,0,Flood,2010-0252,2010-0252-BIH,44.4700629,18.83558792,0,Km2,20/6/2010,0,0,14910,0,14910,87000,84.25273272
761,Bosnia And Herzegovina,BIH,346,2010,2606,Kladanj,3,Federacija Bosna I Hercegovina,Tuzla,Kladanj,Kladanj,0,Flood,2010-0252,2010-0252-BIH,44.26781066,18.65904185,0,Km2,20/6/2010,0,0,14910,0,14910,87000,84.25273272
761,Bosnia And Herzegovina,BIH,346,2010,2608,Lukavac,3,Federacija Bosna I Hercegovina,Tuzla,Lukavac,Lukavac,0,Flood,2010-0252,2010-0252-BIH,44.54128441,18.42472493,0,Km2,20/6/2010,0,0,14910,0,14910,87000,84.25273272
761,Bosnia And Herzegovina,BIH,346,2010,2623,Prijedor,3,Repuplika Srpska,Banja Luka,Prijedor,Prijedor,0,Flood,2010-0252,2010-0252-BIH,44.94905247,16.76731375,0,Km2,20/6/2010,0,0,14910,0,14910,87000,84.25273272
761,Bosnia And Herzegovina,BIH,346,2010,2625,Prnjavor,3,Repuplika Srpska,Banja Luka,Prnjavor,Prnjavor,0,Flood,2010-0252,2010-0252-BIH,44.86318866,17.62773294,0,Km2,20/6/2010,0,0,14910,0,14910,87000,84.25273272
761,Bosnia And Herzegovina,BIH,346,2010,2641,Srebrenik,3,Federacija Bosna I Hercegovina,Tuzla,Srebrenik,Srebrenik,0,Flood,2010-0252,2010-0252-BIH,44.70397423,18.5059005,0,Km2,20/6/2010,0,0,14910,0,14910,87000,84.25273272
762,Bosnia And Herzegovina,BIH,346,2010,2578,Bratunac,3,Repuplika Srpska,Vlasenica,Bratunac,Bratunac,0,Flood,2010-0619,2010-0619-BIH,44.19834357,19.28802267,0,Km2,3/12/2010,3,0,20000,0,20000,0,84.25273272
762,Bosnia And Herzegovina,BIH,346,2010,2593,Domaljevac-Samac,3,Federacija Bosna I Hercegovina,Posavina,Domaljevac-Samac,Domaljevac-Samac,0,Flood,2010-0619,2010-0619-BIH,45.06958406,18.5398748,0,Km2,3/12/2010,3,0,20000,0,20000,0,84.25273272
762,Bosnia And Herzegovina,BIH,346,2010,2596,Drvar,3,Federacija Bosna I Hercegovina,10,Drvar,Drvar,0,Flood,2010-0619,2010-0619-BIH,44.36739641,16.41505761,0,Km2,3/12/2010,3,0,20000,0,20000,0,84.25273272
762,Bosnia And Herzegovina,BIH,346,2010,2627,Ravno,3,Federacija Bosna I Hercegovina,Herzegovina-Neretva,Ravno,Ravno,0,Flood,2010-0619,2010-0619-BIH,42.80469192,18.03213395,0,Km2,3/12/2010,3,0,20000,0,20000,0,84.25273272
762,Bosnia And Herzegovina,BIH,346,2010,2642,Stolac,3,Federacija Bosna I Hercegovina,Herzegovina-Neretva,Stolac,Stolac,0,Flood,2010-0619,2010-0619-BIH,43.08760919,17.88736521,0,Km2,3/12/2010,3,0,20000,0,20000,0,84.25273272
762,Bosnia And Herzegovina,BIH,346,2010,2643,Tomislavgrad,3,Federacija Bosna I Hercegovina,10,Tomislavgrad,Tomislavgrad,0,Flood,2010-0619,2010-0619-BIH,43.68527474,17.23226276,0,Km2,3/12/2010,3,0,20000,0,20000,0,84.25273272
762,Bosnia And Herzegovina,BIH,346,2010,2664,Zvornik,3,Repuplika Srpska,Vlasenica,Zvornik,Zvornik,0,Flood,2010-0619,2010-0619-BIH,44.45026171,19.06985843,0,Km2,3/12/2010,3,0,20000,0,20000,0,84.25273272
764,Bosnia And Herzegovina,BIH,346,2014,2594,Domaljevac-Samac,3,Federacija Bosna I Hercegovina,Posavina,Domaljevac-Samac,Somaljevac,0,Flood,2014-0164,2014-0164-BIH,45.06958406,18.5398748,0,Km2,13/5/2014,25,0,1000000,0,1000000,436580,91.47061409
764,Bosnia And Herzegovina,BIH,346,2014,2658,Zenica,3,Federacija Bosna I Hercegovina,Zenica-Doboj,Zenica,Zenica,0,Flood,2014-0164,2014-0164-BIH,44.27346664,17.91054297,0,Km2,13/5/2014,25,0,1000000,0,1000000,436580,91.47061409
871,Brazil,BRA,140,2013,3036,Xerem,3,Rio De Janeiro,Duque De Caxias,Xerem,Xerem,0,Flood,2013-0003,2013-0003-BRA,-22.58791053,-43.32652703,0,Km2,1/1/2013,4,0,200000,0,200000,2000,90.01044002
872,Brazil,BRA,140,2013,3037,Xerem,3,Rio De Janeiro,Duque De Caxias,Xerem,Xerem,0,Flood,2013-0077,2013-0077-BRA,-22.58791053,-43.32652703,0,Km2,17/3/2013,30,44,1466,0,1510,1500,90.01044002
1012,Canada,CAN,20,2003,3529,Squamish,3,British Columbia,Squamish-Lillooet,Squamish,Squamish,0,Flood,2003-0511,2003-0511-CAN,49.75355683,-123.1480012,0,Km2,17/10/2003,2,0,800,0,800,15000,71.07819758
1012,Canada,CAN,20,2003,3538,Whistler,3,British Columbia,Squamish-Lillooet,Whistler,Whistler,0,Flood,2003-0511,2003-0511-CAN,50.09671519,-122.966902,0,Km2,17/10/2003,2,0,800,0,800,15000,71.07819758
1018,Canada,CAN,20,2005,3460,Kippens,3,Newfoundland And Labrador,No. 4,Kippens,Kippens,0,Flood,2005-0591,2005-0591-CAN,48.55994448,-58.63657039,330,Km2,27/9/2005,0,0,600,0,600,0,75.45719958
1018,Canada,CAN,20,2005,3532,Stephenville,3,Newfoundland And Labrador,No. 4,Stephenville,Stephenville,0,Flood,2005-0591,2005-0591-CAN,48.5481226,-58.55037534,330,Km2,27/9/2005,0,0,600,0,600,0,75.45719958
1020,Canada,CAN,20,2006,3430,Baie Verte,3,Newfoundland And Labrador,No. 8,Baie Verte,Baie Verte,0,Flood,2006-0203,2006-0203-CAN,49.90752633,-56.19456881,730,Km2,18/4/2006,0,0,200,0,200,0,77.89139999
1020,Canada,CAN,20,2006,3452,Division No.  8; Subd. O,3,Newfoundland And Labrador,No. 8,Division No.  8; Subd. O,Smith's Harbour,0,Flood,2006-0203,2006-0203-CAN,49.81243018,-55.9318644,730,Km2,18/4/2006,0,0,200,0,200,0,77.89139999
1020,Canada,CAN,20,2006,3466,Middle Arm,3,Newfoundland And Labrador,No. 8,Middle Arm,Middle Arm,0,Flood,2006-0203,2006-0203-CAN,49.70224049,-56.11662187,730,Km2,18/4/2006,0,0,200,0,200,0,77.89139999
1027,Canada,CAN,20,2008,3431,Belleville,3,Ontario,Hastings,Belleville,Belleville,0,Flood,2008-0170,2008-0170-CAN,44.23993117,-77.36156892,22900,Km2,10/4/2008,0,0,400,0,400,0,83.18902296
1027,Canada,CAN,20,2008,3537,Tweed,3,Ontario,Hastings,Tweed,Tweed,0,Flood,2008-0170,2008-0170-CAN,44.60463573,-77.32848667,22900,Km2,10/4/2008,0,0,400,0,400,0,83.18902296
1099,Chile,CHL,155,1995,3687,Chanaral,2,Atacama,Chanaral,Chanaral,Chanaral,0,Earthquake,1995-0171,1995-0171-CHL,-26.22121912,-69.49489839,8,Richter,30/7/1995,3,58,1200,575,1833,1660,58.87818329
1099,Chile,CHL,155,1995,3709,Diego De Almagro,3,Atacama,Chanaral,Diego De Almagro,Diego de Almagro,0,Earthquake,1995-0171,1995-0171-CHL,-26.18831384,-69.25727705,8,Richter,30/7/1995,3,58,1200,575,1833,1660,58.87818329
1111,Chile,CHL,155,2002,3734,Nancagua,3,Libertador General Bernardo O'Higgins,Colchagua,Nancagua,Puquillay,0,Flood,2002-0546,2002-0546-CHL,-34.62222229,-71.1861221,62180,Km2,24/8/2002,2,0,8000,0,8000,0,69.50047255
1111,Chile,CHL,155,2002,3758,San Fernando,3,Libertador General Bernardo O'Higgins,Colchagua,San Fernando,Sierras de Bellavista,0,Flood,2002-0546,2002-0546-CHL,-34.73757863,-70.60767568,62180,Km2,24/8/2002,2,0,8000,0,8000,0,69.50047255
1111,Chile,CHL,155,2002,3759,Santa Cruz,3,Libertador General Bernardo O'Higgins,Colchagua,Santa Cruz,San Fernando-Pichilemu,0,Flood,2002-0546,2002-0546-CHL,-34.61858408,-71.43154948,62180,Km2,24/8/2002,2,0,8000,0,8000,0,69.50047255
1115,Chile,CHL,155,2005,3683,Camina,3,Tarapaca,Iquique,Camina,Camina,0,Earthquake,2005-0321,2005-0321-CHL,-19.25667137,-69.46401265,8,Richter,13/6/2005,11,182,27463,0,27645,5000,75.45719958
1115,Chile,CHL,155,2005,3716,Iquique,3,Tarapaca,Iquique,Iquique,Alto Hospicio,0,Earthquake,2005-0321,2005-0321-CHL,-20.13895983,-69.40659999,8,Richter,13/6/2005,11,182,27463,0,27645,5000,75.45719958
1115,Chile,CHL,155,2005,3742,Pica,3,Tarapaca,Iquique,Pica,Pica,0,Earthquake,2005-0321,2005-0321-CHL,-20.48666314,-68.92985029,8,Richter,13/6/2005,11,182,27463,0,27645,5000,75.45719958
1115,Chile,CHL,155,2005,3743,Pozo Almonte,3,Tarapaca,Iquique,Pozo Almonte,Pozo Almonte,0,Earthquake,2005-0321,2005-0321-CHL,-20.74559142,-69.53431967,8,Richter,13/6/2005,11,182,27463,0,27645,5000,75.45719958
1120,Chile,CHL,155,2007,3726,Maria Elena,3,Antofagasta,Tocopilla,Maria Elena,Maria Elena,0,Earthquake,2007-0587,2007-0587-CHL,-22.05079509,-69.42513163,8,Richter,14/11/2007,2,155,25000,0,25155,100000,80.11339326
1121,Chile,CHL,155,2008,3707,Coronel,3,Bio-Bio,Concepcion,Coronel,Coronel,0,Flood,2008-0229,2008-0229-CHL,-36.96205927,-73.06827332,110500,Km2,19/5/2008,5,0,40000,0,40000,0,83.18902296
1121,Chile,CHL,155,2008,3741,Penco,3,Bio-Bio,Concepcion,Penco,San Vincente Lirquen,0,Flood,2008-0229,2008-0229-CHL,-36.76168415,-72.90458931,110500,Km2,19/5/2008,5,0,40000,0,40000,0,83.18902296
1122,Chile,CHL,155,2008,3684,Carahue,3,Araucania,Cautin,Carahue,Carahue,0,Flood,2008-0389,2008-0389-CHL,-38.65962214,-73.18873024,0,Km2,29/8/2008,4,0,81755,23000,104755,23000,83.18902296
1122,Chile,CHL,155,2008,3735,Nueva Imperial,3,Araucania,Cautin,Nueva Imperial,Nueva Imperial,0,Flood,2008-0389,2008-0389-CHL,-38.69430002,-72.81774295,0,Km2,29/8/2008,4,0,81755,23000,104755,23000,83.18902296
1122,Chile,CHL,155,2008,3756,Saavedra,3,Araucania,Cautin,Saavedra,Puerto Saavedra,0,Flood,2008-0389,2008-0389-CHL,-38.8304749,-73.28376241,0,Km2,29/8/2008,4,0,81755,23000,104755,23000,83.18902296
2013,Ecuador,ECU,130,1996,6076,La Merced,3,Pichincha,Quito,La Merced,La Merced,0,Earthquake,1996-0062,1996-0062-ECU,-0.287552725,-78.38982644,6,Richter,28/3/1996,27,180,15000,15525,30705,7000,60.60402838
2013,Ecuador,ECU,130,1996,6130,San Antonio,3,Pichincha,Quito,San Antonio,San Antonio,0,Earthquake,1996-0062,1996-0062-ECU,-2.591325968,-79.22447096,6,Richter,28/3/1996,27,180,15000,15525,30705,7000,60.60402838
2015,Ecuador,ECU,130,1998,6009,Bahia De Caraquez,3,Manabi,Sucre,Bahia De Caraquez,Bahia de Caraquez,0,Earthquake,1998-0353,1998-0353-ECU,-0.685155661,-80.40157971,7,Richter,4/8/1998,3,40,1250,750,2040,0,62.98350111
2015,Ecuador,ECU,130,1998,6022,Charapoto,3,Manabi,Sucre,Charapoto,Charapoto,0,Earthquake,1998-0353,1998-0353-ECU,-0.781936823,-80.44364531,7,Richter,4/8/1998,3,40,1250,750,2040,0,62.98350111
2091,Ethiopia,ETH,530,1995,6314,Ferfer,3,Somali,Shabelle,Ferfer,Ferfer,0,Flood,1995-0103,1995-0103-ETH,5.49024987,45.23027746,67450,Km2,28/4/1995,27,0,93875,0,93875,500,58.87818329
2091,Ethiopia,ETH,530,1995,6324,Gode,3,Somali,Shabelle,Gode,Burukur,0,Flood,1995-0103,1995-0103-ETH,6.107586297,43.53092574,67450,Km2,28/4/1995,27,0,93875,0,93875,500,58.87818329
2091,Ethiopia,ETH,530,1995,6334,Kelafo,3,Somali,Shabelle,Kelafo,Kelafo,0,Flood,1995-0103,1995-0103-ETH,5.739242392,44.17314558,67450,Km2,28/4/1995,27,0,93875,0,93875,500,58.87818329
2091,Ethiopia,ETH,530,1995,6341,Mustahil,3,Somali,Shabelle,Mustahil,Mustahil,0,Flood,1995-0103,1995-0103-ETH,5.452177031,44.76028407,67450,Km2,28/4/1995,27,0,93875,0,93875,500,58.87818329
2114,Ethiopia,ETH,530,2006,6306,Denan,3,Somali,Shabelle,Denan,Denan,0,Flood,2006-0578,2006-0578-ETH,6.72208394,43.2803515,0,Km2,27/10/2006,80,0,361600,0,361600,0,77.89139999
2114,Ethiopia,ETH,530,2006,6312,East Imi,3,Somali,Shabelle,East Imi,East IMi,0,Flood,2006-0578,2006-0578-ETH,6.651001665,42.58613129,0,Km2,27/10/2006,80,0,361600,0,361600,0,77.89139999
2114,Ethiopia,ETH,530,2006,6315,Ferfer,3,Somali,Shabelle,Ferfer,Ferfer,0,Flood,2006-0578,2006-0578-ETH,5.49024987,45.23027746,0,Km2,27/10/2006,80,0,361600,0,361600,0,77.89139999
2114,Ethiopia,ETH,530,2006,6327,Gode,3,Somali,Shabelle,Gode,Gode,0,Flood,2006-0578,2006-0578-ETH,6.107586297,43.53092574,0,Km2,27/10/2006,80,0,361600,0,361600,0,77.89139999
2114,Ethiopia,ETH,530,2006,6335,Kelafo,3,Somali,Shabelle,Kelafo,Kelafo,0,Flood,2006-0578,2006-0578-ETH,5.739242392,44.17314558,0,Km2,27/10/2006,80,0,361600,0,361600,0,77.89139999
2114,Ethiopia,ETH,530,2006,6343,Mustahil,3,Somali,Shabelle,Mustahil,Mustahil,0,Flood,2006-0578,2006-0578-ETH,5.452177031,44.76028407,0,Km2,27/10/2006,80,0,361600,0,361600,0,77.89139999
2119,Ethiopia,ETH,530,2008,6313,East Imi,3,Somali,Shabelle,East Imi,East Imi,0,Flood,2008-0517,2008-0517-ETH,6.651001665,42.58613129,25490,Km2,16/11/2008,11,0,23831,0,23831,0,83.18902296
2119,Ethiopia,ETH,530,2008,6336,Kelafo,3,Somali,Shabelle,Kelafo,Kelafo,0,Flood,2008-0517,2008-0517-ETH,5.739242392,44.17314558,25490,Km2,16/11/2008,11,0,23831,0,23831,0,83.18902296
2119,Ethiopia,ETH,530,2008,6344,Mustahil,3,Somali,Shabelle,Mustahil,Mustahil,0,Flood,2008-0517,2008-0517-ETH,5.452177031,44.76028407,25490,Km2,16/11/2008,11,0,23831,0,23831,0,83.18902296
2221,France,FRA,220,2001,6480,Abbeville,3,Hauts-de-France,Somme,Abbeville,Abbeville,0,Flood,2001-0229,2001-0229-FRA,50.12606535,1.76805618,9210,Km2,7/4/2001,0,0,7371,0,7371,0,68.41537906
2221,France,FRA,220,2001,6492,Amiens,3,Hauts-de-France,Somme,Amiens,Amiens,0,Flood,2001-0229,2001-0229-FRA,49.94193236,2.21498166,9210,Km2,7/4/2001,0,0,7371,0,7371,0,68.41537906
2259,France,FRA,220,2014,6640,Perpignan,3,Occitanie,Pyrenees-Orientales,Perpignan,Perpignan region,0,Flood,2014-0488,2014-0488-FRA,42.7330639,2.772827355,123269,Km2,29/11/2014,5,0,3000,0,3000,303000,91.47061409
2390,Greece,GRC,350,1994,6981,Kasos,3,Aegean,South Aegean,Kasos,Kasos Island,0,Flood,1994-0543,1994-0543-GRC,35.3931575,26.91764809,36620,Km2,24/10/1994,14,0,1000,0,1000,437700,57.27148263
2390,Greece,GRC,350,1994,7016,Rhodos,3,Aegean,South Aegean,Rhodos,Rhodes Island,0,Flood,1994-0543,1994-0543-GRC,36.1834173,27.95152544,36620,Km2,24/10/1994,14,0,1000,0,1000,437700,57.27148263
2391,Greece,GRC,350,1995,6974,Grevena,3,Epirus And Western Macedonia,West Macedonia,Grevena,Grevena-Kozani,0,Earthquake,1995-0085,1995-0085-GRC,40.04281357,21.36192821,7,Richter,13/5/1995,26,60,15000,0,15060,450000,58.87818329
2391,Greece,GRC,350,1995,6985,Kozani,3,Epirus And Western Macedonia,West Macedonia,Kozani,Kozani,0,Earthquake,1995-0085,1995-0085-GRC,40.30928976,21.83193968,7,Richter,13/5/1995,26,60,15000,0,15060,450000,58.87818329
2396,Greece,GRC,350,1999,6971,Elefsina,3,Attica,Attica,Elefsina,Elefsina,0,Earthquake,1999-0302,1999-0302-GRC,38.0818383,23.53245393,6,Richter,7/9/1999,143,2000,113031,108,115139,4200000,64.36159282
2396,Greece,GRC,350,1999,7010,Peristeri,3,Attica,Attica,Peristeri,Peristeri,0,Earthquake,1999-0302,1999-0302-GRC,38.01188262,23.68833905,6,Richter,7/9/1999,143,2000,113031,108,115139,4200000,64.36159282
2396,Greece,GRC,350,1999,7011,Petroupoli,3,Attica,Attica,Petroupoli,Petroupoli,0,Earthquake,1999-0302,1999-0302-GRC,38.04160401,23.6736876,6,Richter,7/9/1999,143,2000,113031,108,115139,4200000,64.36159282
2397,Greece,GRC,350,2000,6975,Ioannina,3,Epirus And Western Macedonia,Epirus,Ioannina,Michalitsi,0,Earthquake,2000-0303,2000-0303-GRC,39.64110212,20.88226481,6,Richter,26/5/2000,0,0,600,0,600,0,66.53499421
2397,Greece,GRC,350,2000,7015,Preveza,3,Epirus And Western Macedonia,Epirus,Preveza,Mitikas,0,Earthquake,2000-0303,2000-0303-GRC,39.14468957,20.70319507,6,Richter,26/5/2000,0,0,600,0,600,0,66.53499421
2408,Greece,GRC,350,2003,6995,Marathon,3,Attica,Attica,Marathon,Marathon,0,Flood,2003-0044,2003-0044-GRC,38.1718537,23.97518836,0,Km2,25/1/2003,0,0,450,0,450,0,71.07819758
2408,Greece,GRC,350,2003,6997,Oropos,3,Attica,Attica,Oropos,Oropos,0,Flood,2003-0044,2003-0044-GRC,38.25411773,23.78470678,0,Km2,25/1/2003,0,0,450,0,450,0,71.07819758
2520,Haiti,HTI,41,2002,7274,Chantal,3,Sud,Les Cayes,Chantal,Chantal,0,Flood,2002-0321,2002-0321-HTI,18.28096469,-73.96668455,0,Km2,23/5/2002,31,4,38335,0,38339,1000,69.50047255
2537,Haiti,HTI,41,2006,7247,Abricots,3,Grand'Anse,Jeremie,Abricots,Abricots,0,Flood,2006-0651,2006-0651-HTI,18.61320612,-74.31510131,6300,Km2,28/11/2006,11,10,20000,0,20010,0,77.89139999
2537,Haiti,HTI,41,2006,7253,Baie De Henne,3,Nord-Ouest,Mole Saint-Nicolas,Baie De Henne,Baie de Henne,0,Flood,2006-0651,2006-0651-HTI,19.69494787,-73.20408571,6300,Km2,28/11/2006,11,10,20000,0,20010,0,77.89139999
2537,Haiti,HTI,41,2006,7254,Beaumont,3,Grand'Anse,Corail,Beaumont,Beaumont,0,Flood,2006-0651,2006-0651-HTI,18.43724415,-73.9585865,6300,Km2,28/11/2006,11,10,20000,0,20010,0,77.89139999
2537,Haiti,HTI,41,2006,7256,Bonbon,3,Grand'Anse,Jeremie,Bonbon,Bonbon,0,Flood,2006-0651,2006-0651-HTI,18.6295454,-74.23942102,6300,Km2,28/11/2006,11,10,20000,0,20010,0,77.89139999
2537,Haiti,HTI,41,2006,7273,Chansolme,3,Nord-Ouest,Port-de-Paix,Chansolme,Chansolme,0,Flood,2006-0651,2006-0651-HTI,19.87276132,-72.80583022,6300,Km2,28/11/2006,11,10,20000,0,20010,0,77.89139999
2537,Haiti,HTI,41,2006,7314,Jean Rabel,3,Nord-Ouest,Mole Saint-Nicolas,Jean Rabel,Jean-Rabel,0,Flood,2006-0651,2006-0651-HTI,19.82845044,-73.1300626,6300,Km2,28/11/2006,11,10,20000,0,20010,0,77.89139999
2537,Haiti,HTI,41,2006,7352,Moron,3,Grand'Anse,Jeremie,Moron,Moron,0,Flood,2006-0651,2006-0651-HTI,18.47702304,-74.26456483,6300,Km2,28/11/2006,11,10,20000,0,20010,0,77.89139999
2537,Haiti,HTI,41,2006,7424,Pestel,3,Grand'Anse,Corail,Pestel,Pestel,0,Flood,2006-0651,2006-0651-HTI,18.46718315,-73.83978336,6300,Km2,28/11/2006,11,10,20000,0,20010,0,77.89139999
2549,Haiti,HTI,41,2009,7258,Camp Perrin,3,Sud,Les Cayes,Camp Perrin,Camp Perrin,0,Flood,2009-0198,2009-0198-HTI,18.34794676,-73.85982974,5754,Km2,15/5/2009,11,0,0,9910,9910,0,82.89324989
2549,Haiti,HTI,41,2009,7349,Maniche,3,Sud,Les Cayes,Maniche,Maniche,0,Flood,2009-0198,2009-0198-HTI,18.33525463,-73.73696499,5754,Km2,15/5/2009,11,0,0,9910,9910,0,82.89324989
2552,Haiti,HTI,41,2010,7317,Kenscoff,3,Ouest,Port-au-Prince,Kenscoff,Kenscoff,0,Earthquake,2010-0017,2010-0017-HTI,18.40459993,-72.29065501,7,Richter,12/1/2010,222570,300000,3400000,0,3700000,8000000,84.25273272
2561,Haiti,HTI,41,2011,7259,Camp Perrin,3,Sud,Les Cayes,Camp Perrin,Camp-Perrin,0,Flood,2011-0383,2011-0383-HTI,18.34794676,-73.85982974,0,Km2,6/10/2011,2,0,2080,0,2080,0,86.91246502
2561,Haiti,HTI,41,2011,7275,Chantal,3,Sud,Les Cayes,Chantal,Chantal,0,Flood,2011-0383,2011-0383-HTI,18.28096469,-73.96668455,0,Km2,6/10/2011,2,0,2080,0,2080,0,86.91246502
2561,Haiti,HTI,41,2011,7350,Maniche,3,Sud,Les Cayes,Maniche,Maniche,0,Flood,2011-0383,2011-0383-HTI,18.33525463,-73.73696499,0,Km2,6/10/2011,2,0,2080,0,2080,0,86.91246502
2561,Haiti,HTI,41,2011,7456,Saint Jean Du Sud,3,Sud,Port-Salut,Saint Jean Du Sud,Saint-Jean-du-Sud,0,Flood,2011-0383,2011-0383-HTI,18.28742228,-73.5466065,0,Km2,6/10/2011,2,0,2080,0,2080,0,86.91246502
4366,Mozambique,MOZ,541,2001,13741,Mafambisse,3,Sofala,Dondo,Mafambisse,Mafambisse,0,Flood,2001-0019,2001-0019-MOZ,-19.42503879,34.61416227,200000,Km2,1/1/2001,79,0,549326,0,549326,36000,68.41537906
4379,Mozambique,MOZ,541,2007,13696,Dombe,3,Manica,Sussundenga,Dombe,Dombe,0,Flood,2007-0614,2007-0614-MOZ,-19.89981277,33.39628882,57570,Km2,11/12/2007,20,0,113535,0,113535,100000,80.11339326
4379,Mozambique,MOZ,541,2007,13733,Inhangoma,3,Tete,Mutarara,Inhangoma,Inhangoma,0,Flood,2007-0614,2007-0614-MOZ,-17.51061694,35.23023378,57570,Km2,11/12/2007,20,0,113535,0,113535,100000,80.11339326
4379,Mozambique,MOZ,541,2007,13841,Nhamayabue,3,Tete,Mutarara,Nhamayabue,Nhamayabue,0,Flood,2007-0614,2007-0614-MOZ,-17.05759062,35.00437752,57570,Km2,11/12/2007,20,0,113535,0,113535,100000,80.11339326
4407,Myanmar,MMR,775,2001,13957,Mahlaing,3,Mandalay,Myingyan,Mahlaing,Mahlaing,0,Flood,2001-0746,2001-0746-MMR,21.05340167,95.6408345,0,Km2,2/6/2001,51,0,0,3750,3750,0,68.41537906
4419,Myanmar,MMR,775,2011,13987,Pauk,3,Magway,Pakokku,Pauk,Pauk,0,Flood,2011-0400,2011-0400-MMR,21.47305876,94.50384656,0,Km2,19/10/2011,151,0,35734,0,35734,1700,86.91246502
4419,Myanmar,MMR,775,2011,14036,Yesagyo,3,Magway,Pakokku,Yesagyo,Yesagyo,0,Flood,2011-0400,2011-0400-MMR,21.57719195,95.18676671,0,Km2,19/10/2011,151,0,35734,0,35734,1700,86.91246502
4421,Myanmar,MMR,775,2012,13969,Mogok,3,Mandalay,Pyin-Oo-Lwin,Mogok,Mogok,0,Earthquake,2012-0417,2012-0417-MMR,22.907203,96.44764414,7,Richter,11/11/2012,38,231,1255,0,1486,1170,88.71096898
4421,Myanmar,MMR,775,2012,14018,Singu,3,Mandalay,Pyin-Oo-Lwin,Singu,Singu,0,Earthquake,2012-0417,2012-0417-MMR,22.55591955,96.11568647,7,Richter,11/11/2012,38,231,1255,0,1486,1170,88.71096898
4421,Myanmar,MMR,775,2012,14030,Thabeikkyin,3,Mandalay,Pyin-Oo-Lwin,Thabeikkyin,Thabeikkyin,0,Earthquake,2012-0417,2012-0417-MMR,23.16641848,96.09296991,7,Richter,11/11/2012,38,231,1255,0,1486,1170,88.71096898
4445,Nepal,NPL,790,1986,14263,Morang,3,East,Koshi,Morang,Morang,0,Flood,1986-0224,1986-0224-NPL,26.61669552,87.47181543,0,Km2,6/4/1986,22,0,0,0,0,0,42.35069857
4445,Nepal,NPL,790,1986,14370,Sunsari,3,East,Koshi,Sunsari,Sunsari,0,Flood,1986-0224,1986-0224-NPL,26.65168012,87.17244306,0,Km2,6/4/1986,22,0,0,0,0,0,42.35069857
4448,Nepal,NPL,790,1988,14160,Dhankuta,3,East,Koshi,Dhankuta,Dhankuta,0,Earthquake,1988-0383,1988-0383-NPL,26.99110971,87.33355772,7,Richter,20/8/1988,709,1016,300000,0,301016,60000,45.69289676
4448,Nepal,NPL,790,1988,14190,Ilam,3,East,Mechi,Ilam,Ilam,0,Earthquake,1988-0383,1988-0383-NPL,26.8810675,87.90348445,7,Richter,20/8/1988,709,1016,300000,0,301016,60000,45.69289676
4448,Nepal,NPL,790,1988,14264,Morang,3,East,Koshi,Morang,Morang,0,Earthquake,1988-0383,1988-0383-NPL,26.61669552,87.47181543,7,Richter,20/8/1988,709,1016,300000,0,301016,60000,45.69289676
4448,Nepal,NPL,790,1988,14292,Panchthar,3,East,Mechi,Panchthar,Panchthar,0,Earthquake,1988-0383,1988-0383-NPL,27.11337157,87.77651847,7,Richter,20/8/1988,709,1016,300000,0,301016,60000,45.69289676
4448,Nepal,NPL,790,1988,14395,Terhathum,3,East,Koshi,Terhathum,Terathum,0,Earthquake,1988-0383,1988-0383-NPL,27.15437248,87.55107653,7,Richter,20/8/1988,709,1016,300000,0,301016,60000,45.69289676
4450,Nepal,NPL,790,1993,14134,Chitawan,3,Central,Narayani,Chitawan,Chitawan,0,Flood,1993-0052,1993-0052-NPL,27.58446822,84.43883916,373,Km2,23/8/1993,1048,268,553000,0,553268,200000,55.8161073
4450,Nepal,NPL,790,1993,14253,Makwanpur,3,Central,Narayani,Makwanpur,Markwanpur,0,Flood,1993-0052,1993-0052-NPL,27.46994485,85.08120085,373,Km2,23/8/1993,1048,268,553000,0,553268,200000,55.8161073
4450,Nepal,NPL,790,1993,14293,Panchthar,3,East,Mechi,Panchthar,Pantchthar,0,Flood,1993-0052,1993-0052-NPL,27.11337157,87.77651847,373,Km2,23/8/1993,1048,268,553000,0,553268,200000,55.8161073
4450,Nepal,NPL,790,1993,14316,Rautahat,3,Central,Narayani,Rautahat,Rautahat,0,Flood,1993-0052,1993-0052-NPL,27.00149079,85.30494916,373,Km2,23/8/1993,1048,268,553000,0,553268,200000,55.8161073
4450,Nepal,NPL,790,1993,14342,Sarlahi,3,Central,Janakpur,Sarlahi,Sharlahi,0,Flood,1993-0052,1993-0052-NPL,26.98640254,85.56691433,373,Km2,23/8/1993,1048,268,553000,0,553268,200000,55.8161073
4450,Nepal,NPL,790,1993,14349,Sindhuli,3,Central,Janakpur,Sindhuli,Sindhuli,0,Flood,1993-0052,1993-0052-NPL,27.20078376,85.94713344,373,Km2,23/8/1993,1048,268,553000,0,553268,200000,55.8161073
4450,Nepal,NPL,790,1993,14388,Taplejung,3,East,Mechi,Taplejung,Taplejung,0,Flood,1993-0052,1993-0052-NPL,27.58005501,87.82388638,373,Km2,23/8/1993,1048,268,553000,0,553268,200000,55.8161073
4452,Nepal,NPL,790,1995,14237,Khotang,3,East,Sagarmatha,Khotang,Khotang,0,Flood,1995-0105,1995-0105-NPL,27.167664,86.79012995,71320,Km2,19/6/1995,140,0,10000,3000,13000,1200,58.87818329
4452,Nepal,NPL,790,1995,14286,Okhaldhunga,3,East,Sagarmatha,Okhaldhunga,Okhaldhunga,0,Flood,1995-0105,1995-0105-NPL,27.32968995,86.42208086,71320,Km2,19/6/1995,140,0,10000,3000,13000,1200,58.87818329
4452,Nepal,NPL,790,1995,14365,Solukhumbu,3,East,Sagarmatha,Solukhumbu,Solukhumbu,0,Flood,1995-0105,1995-0105-NPL,27.71000485,86.72345995,71320,Km2,19/6/1995,140,0,10000,3000,13000,1200,58.87818329
4454,Nepal,NPL,790,1996,14103,Baitadi,3,Far-Western,Mahakali,Baitadi,Baitadi,0,Flood,1996-0107,1996-0107-NPL,29.50751599,80.57209181,60,Km2,12/7/1996,768,132,137600,13650,151382,0,60.60402838
4454,Nepal,NPL,790,1996,14151,Darchula,3,Far-Western,Mahakali,Darchula,Darchula,0,Flood,1996-0107,1996-0107-NPL,29.89156096,80.79208143,60,Km2,12/7/1996,768,132,137600,13650,151382,0,60.60402838
4454,Nepal,NPL,790,1996,14155,Dhading,3,Central,Bagmati,Dhading,Dhading,0,Flood,1996-0107,1996-0107-NPL,27.94894272,84.95825539,60,Km2,12/7/1996,768,132,137600,13650,151382,0,60.60402838
4454,Nepal,NPL,790,1996,14183,Gulmi,3,West,Lumbini,Gulmi,Gulmi,0,Flood,1996-0107,1996-0107-NPL,28.09454597,83.30769385,60,Km2,12/7/1996,768,132,137600,13650,151382,0,60.60402838
4454,Nepal,NPL,790,1996,14226,Kapilbastu,3,West,Lumbini,Kapilbastu,Kapalvastu,0,Flood,1996-0107,1996-0107-NPL,27.62835206,82.98563224,60,Km2,12/7/1996,768,132,137600,13650,151382,0,60.60402838
4454,Nepal,NPL,790,1996,14254,Makwanpur,3,Central,Narayani,Makwanpur,Makawanpur,0,Flood,1996-0107,1996-0107-NPL,27.46994485,85.08120085,60,Km2,12/7/1996,768,132,137600,13650,151382,0,60.60402838
4454,Nepal,NPL,790,1996,14312,Rasuwa,3,Central,Bagmati,Rasuwa,Rasuwa,0,Flood,1996-0107,1996-0107-NPL,28.18475101,85.41610352,60,Km2,12/7/1996,768,132,137600,13650,151382,0,60.60402838
4454,Nepal,NPL,790,1996,14317,Rautahat,3,Central,Narayani,Rautahat,Rautahar,0,Flood,1996-0107,1996-0107-NPL,27.00149079,85.30494916,60,Km2,12/7/1996,768,132,137600,13650,151382,0,60.60402838
4454,Nepal,NPL,790,1996,14329,Rupandehi,3,West,Lumbini,Rupandehi,Rupandehi,0,Flood,1996-0107,1996-0107-NPL,27.57685316,83.39118063,60,Km2,12/7/1996,768,132,137600,13650,151382,0,60.60402838
4456,Nepal,NPL,790,1998,14104,Baitadi,3,Far-Western,Mahakali,Baitadi,Baitadi,0,Flood,1998-0221,1998-0221-NPL,29.50751599,80.57209181,405,Km2,4/7/1998,260,0,20000,50000,70000,22000,62.98350111
4456,Nepal,NPL,790,1998,14121,Bara,3,Central,Narayani,Bara,Bara,0,Flood,1998-0221,1998-0221-NPL,27.10863016,85.07288901,405,Km2,4/7/1998,260,0,20000,50000,70000,22000,62.98350111
4456,Nepal,NPL,790,1998,14152,Darchula,3,Far-Western,Mahakali,Darchula,Darchula,0,Flood,1998-0221,1998-0221-NPL,29.89156096,80.79208143,405,Km2,4/7/1998,260,0,20000,50000,70000,22000,62.98350111
4456,Nepal,NPL,790,1998,14156,Dhading,3,Central,Bagmati,Dhading,Dhading,0,Flood,1998-0221,1998-0221-NPL,27.94894272,84.95825539,405,Km2,4/7/1998,260,0,20000,50000,70000,22000,62.98350111
4456,Nepal,NPL,790,1998,14184,Gulmi,3,West,Lumbini,Gulmi,Gulmi,0,Flood,1998-0221,1998-0221-NPL,28.09454597,83.30769385,405,Km2,4/7/1998,260,0,20000,50000,70000,22000,62.98350111
4456,Nepal,NPL,790,1998,14191,Ilam,3,East,Mechi,Ilam,Ilam,0,Flood,1998-0221,1998-0221-NPL,26.8810675,87.90348445,405,Km2,4/7/1998,260,0,20000,50000,70000,22000,62.98350111
4456,Nepal,NPL,790,1998,14202,Jhapa,3,East,Mechi,Jhapa,Jhapa,0,Flood,1998-0221,1998-0221-NPL,26.58512704,87.91632788,405,Km2,4/7/1998,260,0,20000,50000,70000,22000,62.98350111
4456,Nepal,NPL,790,1998,14249,Mahottari,3,Central,Janakpur,Mahottari,Mahottari,0,Flood,1998-0221,1998-0221-NPL,26.87862024,85.82273832,405,Km2,4/7/1998,260,0,20000,50000,70000,22000,62.98350111
4456,Nepal,NPL,790,1998,14255,Makwanpur,3,Central,Narayani,Makwanpur,Makwanpur,0,Flood,1998-0221,1998-0221-NPL,27.46994485,85.08120085,405,Km2,4/7/1998,260,0,20000,50000,70000,22000,62.98350111
4456,Nepal,NPL,790,1998,14291,Palpa,3,West,Lumbini,Palpa,Palpa,0,Flood,1998-0221,1998-0221-NPL,27.81731576,83.62684541,405,Km2,4/7/1998,260,0,20000,50000,70000,22000,62.98350111
4456,Nepal,NPL,790,1998,14294,Panchthar,3,East,Mechi,Panchthar,Panchthar,0,Flood,1998-0221,1998-0221-NPL,27.11337157,87.77651847,405,Km2,4/7/1998,260,0,20000,50000,70000,22000,62.98350111
4456,Nepal,NPL,790,1998,14300,Parsa,3,Central,Narayani,Parsa,Parsa,0,Flood,1998-0221,1998-0221-NPL,27.23801982,84.78375665,405,Km2,4/7/1998,260,0,20000,50000,70000,22000,62.98350111
4456,Nepal,NPL,790,1998,14313,Rasuwa,3,Central,Bagmati,Rasuwa,Rasuwa,0,Flood,1998-0221,1998-0221-NPL,28.18475101,85.41610352,405,Km2,4/7/1998,260,0,20000,50000,70000,22000,62.98350111
4456,Nepal,NPL,790,1998,14318,Rautahat,3,Central,Narayani,Rautahat,Rautahat,0,Flood,1998-0221,1998-0221-NPL,27.00149079,85.30494916,405,Km2,4/7/1998,260,0,20000,50000,70000,22000,62.98350111
4456,Nepal,NPL,790,1998,14330,Rupandehi,3,West,Lumbini,Rupandehi,Rupandehi,0,Flood,1998-0221,1998-0221-NPL,27.57685316,83.39118063,405,Km2,4/7/1998,260,0,20000,50000,70000,22000,62.98350111
4456,Nepal,NPL,790,1998,14343,Sarlahi,3,Central,Janakpur,Sarlahi,Sarlahi,0,Flood,1998-0221,1998-0221-NPL,26.98640254,85.56691433,405,Km2,4/7/1998,260,0,20000,50000,70000,22000,62.98350111
4456,Nepal,NPL,790,1998,14390,Taplejung,3,East,Mechi,Taplejung,Taplejung,0,Flood,1998-0221,1998-0221-NPL,27.58005501,87.82388638,405,Km2,4/7/1998,260,0,20000,50000,70000,22000,62.98350111
4458,Nepal,NPL,790,2003,14091,Baglung,3,West,Dhaualagiri,Baglung,Baglung,0,Flood,2003-0341,2003-0341-NPL,28.34688992,83.25261854,137100,Km2,3/7/2003,239,284,43395,15575,59254,0,71.07819758
4458,Nepal,NPL,790,2003,14105,Baitadi,3,Far-Western,Mahakali,Baitadi,Baitadi,0,Flood,2003-0341,2003-0341-NPL,29.50751599,80.57209181,137100,Km2,3/7/2003,239,284,43395,15575,59254,0,71.07819758
4458,Nepal,NPL,790,2003,14111,Bajura,3,Far-Western,Seti,Bajura,Bajura,0,Flood,2003-0341,2003-0341-NPL,29.56132324,81.56589183,137100,Km2,3/7/2003,239,284,43395,15575,59254,0,71.07819758
4458,Nepal,NPL,790,2003,14115,Banke,3,Mid-Western,Bheri,Banke,Banke,0,Flood,2003-0341,2003-0341-NPL,28.08506134,81.82445332,137100,Km2,3/7/2003,239,284,43395,15575,59254,0,71.07819758
4458,Nepal,NPL,790,2003,14122,Bara,3,Central,Narayani,Bara,Bara,0,Flood,2003-0341,2003-0341-NPL,27.10863016,85.07288901,137100,Km2,3/7/2003,239,284,43395,15575,59254,0,71.07819758
4458,Nepal,NPL,790,2003,14131,Bhojpur,3,East,Koshi,Bhojpur,Bhojpur,0,Flood,2003-0341,2003-0341-NPL,27.17952946,87.06865533,137100,Km2,3/7/2003,239,284,43395,15575,59254,0,71.07819758
4458,Nepal,NPL,790,2003,14143,Dang,3,Mid-Western,Rapti,Dang,Dang,0,Flood,2003-0341,2003-0341-NPL,27.96523787,82.41155673,137100,Km2,3/7/2003,239,284,43395,15575,59254,0,71.07819758
4458,Nepal,NPL,790,2003,14157,Dhading,3,Central,Bagmati,Dhading,Dhading,0,Flood,2003-0341,2003-0341-NPL,27.94894272,84.95825539,137100,Km2,3/7/2003,239,284,43395,15575,59254,0,71.07819758
4458,Nepal,NPL,790,2003,14163,Dhanusa,3,Central,Janakpur,Dhanusa,Dhanusha,0,Flood,2003-0341,2003-0341-NPL,26.83057281,86.03660878,137100,Km2,3/7/2003,239,284,43395,15575,59254,0,71.07819758
4458,Nepal,NPL,790,2003,14168,Dolakha,3,Central,Janakpur,Dolakha,Dolakha,0,Flood,2003-0341,2003-0341-NPL,27.78583782,86.20023138,137100,Km2,3/7/2003,239,284,43395,15575,59254,0,71.07819758
4458,Nepal,NPL,790,2003,14181,Gorkha,3,West,Gandaki,Gorkha,Gorkha,0,Flood,2003-0341,2003-0341-NPL,28.31735356,84.79235115,137100,Km2,3/7/2003,239,284,43395,15575,59254,0,71.07819758
4458,Nepal,NPL,790,2003,14185,Gulmi,3,West,Lumbini,Gulmi,Gulmi,0,Flood,2003-0341,2003-0341-NPL,28.09454597,83.30769385,137100,Km2,3/7/2003,239,284,43395,15575,59254,0,71.07819758
4458,Nepal,NPL,790,2003,14192,Ilam,3,East,Mechi,Ilam,Ilam,0,Flood,2003-0341,2003-0341-NPL,26.8810675,87.90348445,137100,Km2,3/7/2003,239,284,43395,15575,59254,0,71.07819758
4458,Nepal,NPL,790,2003,14197,Jajarkot,3,Mid-Western,Bheri,Jajarkot,Jajarkot,0,Flood,2003-0341,2003-0341-NPL,28.86566509,82.16941171,137100,Km2,3/7/2003,239,284,43395,15575,59254,0,71.07819758
4458,Nepal,NPL,790,2003,14203,Jhapa,3,East,Mechi,Jhapa,Jhapa,0,Flood,2003-0341,2003-0341-NPL,26.58512704,87.91632788,137100,Km2,3/7/2003,239,284,43395,15575,59254,0,71.07819758
4458,Nepal,NPL,790,2003,14220,Kanchanpur,3,Far-Western,Mahakali,Kanchanpur,Kanchanpur,0,Flood,2003-0341,2003-0341-NPL,28.85918995,80.32494795,137100,Km2,3/7/2003,239,284,43395,15575,59254,0,71.07819758
4458,Nepal,NPL,790,2003,14227,Kapilbastu,3,West,Lumbini,Kapilbastu,Kapilvastu,0,Flood,2003-0341,2003-0341-NPL,27.62835206,82.98563224,137100,Km2,3/7/2003,239,284,43395,15575,59254,0,71.07819758
4458,Nepal,NPL,790,2003,14228,Kaski,3,West,Gandaki,Kaski,Kaski,0,Flood,2003-0341,2003-0341-NPL,28.35483726,83.99862316,137100,Km2,3/7/2003,239,284,43395,15575,59254,0,71.07819758
4458,Nepal,NPL,790,2003,14238,Khotang,3,East,Sagarmatha,Khotang,Khotang,0,Flood,2003-0341,2003-0341-NPL,27.167664,86.79012995,137100,Km2,3/7/2003,239,284,43395,15575,59254,0,71.07819758
4458,Nepal,NPL,790,2003,14244,Lamjung,3,West,Gandaki,Lamjung,Lamjung,0,Flood,2003-0341,2003-0341-NPL,28.28895485,84.43327713,137100,Km2,3/7/2003,239,284,43395,15575,59254,0,71.07819758
4458,Nepal,NPL,790,2003,14250,Mahottari,3,Central,Janakpur,Mahottari,Mahottari,0,Flood,2003-0341,2003-0341-NPL,26.87862024,85.82273832,137100,Km2,3/7/2003,239,284,43395,15575,59254,0,71.07819758
4458,Nepal,NPL,790,2003,14256,Makwanpur,3,Central,Narayani,Makwanpur,Makwanpur,0,Flood,2003-0341,2003-0341-NPL,27.46994485,85.08120085,137100,Km2,3/7/2003,239,284,43395,15575,59254,0,71.07819758
4458,Nepal,NPL,790,2003,14267,Morang,3,East,Koshi,Morang,Morang,0,Flood,2003-0341,2003-0341-NPL,26.61669552,87.47181543,137100,Km2,3/7/2003,239,284,43395,15575,59254,0,71.07819758
4458,Nepal,NPL,790,2003,14283,Nuwakot,3,Central,Bagmati,Nuwakot,Nuwakot,0,Flood,2003-0341,2003-0341-NPL,27.91433609,85.23506275,137100,Km2,3/7/2003,239,284,43395,15575,59254,0,71.07819758
4458,Nepal,NPL,790,2003,14287,Okhaldhunga,3,East,Sagarmatha,Okhaldhunga,Okhaldunda,0,Flood,2003-0341,2003-0341-NPL,27.32968995,86.42208086,137100,Km2,3/7/2003,239,284,43395,15575,59254,0,71.07819758
4458,Nepal,NPL,790,2003,14297,Parbat,3,West,Dhaualagiri,Parbat,Parbat,0,Flood,2003-0341,2003-0341-NPL,28.20931464,83.68029572,137100,Km2,3/7/2003,239,284,43395,15575,59254,0,71.07819758
4458,Nepal,NPL,790,2003,14314,Rasuwa,3,Central,Bagmati,Rasuwa,Rasuwa,0,Flood,2003-0341,2003-0341-NPL,28.18475101,85.41610352,137100,Km2,3/7/2003,239,284,43395,15575,59254,0,71.07819758
4458,Nepal,NPL,790,2003,14319,Rautahat,3,Central,Narayani,Rautahat,Rauthat,0,Flood,2003-0341,2003-0341-NPL,27.00149079,85.30494916,137100,Km2,3/7/2003,239,284,43395,15575,59254,0,71.07819758
4458,Nepal,NPL,790,2003,14327,Rukum,3,Mid-Western,Rapti,Rukum,Rukum,0,Flood,2003-0341,2003-0341-NPL,28.7014046,82.66505658,137100,Km2,3/7/2003,239,284,43395,15575,59254,0,71.07819758
4458,Nepal,NPL,790,2003,14331,Rupandehi,3,West,Lumbini,Rupandehi,Rupandehi,0,Flood,2003-0341,2003-0341-NPL,27.57685316,83.39118063,137100,Km2,3/7/2003,239,284,43395,15575,59254,0,71.07819758
4458,Nepal,NPL,790,2003,14337,Saptari,3,East,Sagarmatha,Saptari,Saptari,0,Flood,2003-0341,2003-0341-NPL,26.59782502,86.74921823,137100,Km2,3/7/2003,239,284,43395,15575,59254,0,71.07819758
4458,Nepal,NPL,790,2003,14344,Sarlahi,3,Central,Janakpur,Sarlahi,Sarlahi,0,Flood,2003-0341,2003-0341-NPL,26.98640254,85.56691433,137100,Km2,3/7/2003,239,284,43395,15575,59254,0,71.07819758
4458,Nepal,NPL,790,2003,14350,Sindhuli,3,Central,Janakpur,Sindhuli,Sindhuli,0,Flood,2003-0341,2003-0341-NPL,27.20078376,85.94713344,137100,Km2,3/7/2003,239,284,43395,15575,59254,0,71.07819758
4458,Nepal,NPL,790,2003,14355,Sindhupalchok,3,Central,Bagmati,Sindhupalchok,Sindhupachowk,0,Flood,2003-0341,2003-0341-NPL,27.91463216,85.74159439,137100,Km2,3/7/2003,239,284,43395,15575,59254,0,71.07819758
4458,Nepal,NPL,790,2003,14362,Siraha,3,East,Sagarmatha,Siraha,Siraha,0,Flood,2003-0341,2003-0341-NPL,26.74559139,86.34695887,137100,Km2,3/7/2003,239,284,43395,15575,59254,0,71.07819758
4458,Nepal,NPL,790,2003,14366,Solukhumbu,3,East,Sagarmatha,Solukhumbu,Solukhumbu,0,Flood,2003-0341,2003-0341-NPL,27.71000485,86.72345995,137100,Km2,3/7/2003,239,284,43395,15575,59254,0,71.07819758
4458,Nepal,NPL,790,2003,14371,Sunsari,3,East,Koshi,Sunsari,Sunsari,0,Flood,2003-0341,2003-0341-NPL,26.65168012,87.17244306,137100,Km2,3/7/2003,239,284,43395,15575,59254,0,71.07819758
4458,Nepal,NPL,790,2003,14386,Tanahu,3,West,Gandaki,Tanahu,Tanahu,0,Flood,2003-0341,2003-0341-NPL,27.95553347,84.25310076,137100,Km2,3/7/2003,239,284,43395,15575,59254,0,71.07819758
4458,Nepal,NPL,790,2003,14391,Taplejung,3,East,Mechi,Taplejung,Taplejung,0,Flood,2003-0341,2003-0341-NPL,27.58005501,87.82388638,137100,Km2,3/7/2003,239,284,43395,15575,59254,0,71.07819758
4458,Nepal,NPL,790,2003,14396,Terhathum,3,East,Koshi,Terhathum,Terathum,0,Flood,2003-0341,2003-0341-NPL,27.15437248,87.55107653,137100,Km2,3/7/2003,239,284,43395,15575,59254,0,71.07819758
4458,Nepal,NPL,790,2003,14399,Udayapur,3,East,Sagarmatha,Udayapur,Udayapur,0,Flood,2003-0341,2003-0341-NPL,26.90192818,86.68457262,137100,Km2,3/7/2003,239,284,43395,15575,59254,0,71.07819758
4459,Nepal,NPL,790,2004,14123,Bara,3,Central,Narayani,Bara,Bara,0,Flood,2004-0298,2004-0298-NPL,27.10863016,85.07288901,37430,Km2,5/7/2004,185,15,800000,0,800015,0,72.98112921
4459,Nepal,NPL,790,2004,14144,Dang,3,Mid-Western,Rapti,Dang,Dang,0,Flood,2004-0298,2004-0298-NPL,27.96523787,82.41155673,37430,Km2,5/7/2004,185,15,800000,0,800015,0,72.98112921
4459,Nepal,NPL,790,2004,14164,Dhanusa,3,Central,Janakpur,Dhanusa,Dhanusha,0,Flood,2004-0298,2004-0298-NPL,26.83057281,86.03660878,37430,Km2,5/7/2004,185,15,800000,0,800015,0,72.98112921
4459,Nepal,NPL,790,2004,14251,Mahottari,3,Central,Janakpur,Mahottari,Mahottari,0,Flood,2004-0298,2004-0298-NPL,26.87862024,85.82273832,37430,Km2,5/7/2004,185,15,800000,0,800015,0,72.98112921
4459,Nepal,NPL,790,2004,14257,Makwanpur,3,Central,Narayani,Makwanpur,Makwanpur,0,Flood,2004-0298,2004-0298-NPL,27.46994485,85.08120085,37430,Km2,5/7/2004,185,15,800000,0,800015,0,72.98112921
4459,Nepal,NPL,790,2004,14268,Morang,3,East,Koshi,Morang,Morang,0,Flood,2004-0298,2004-0298-NPL,26.61669552,87.47181543,37430,Km2,5/7/2004,185,15,800000,0,800015,0,72.98112921
4459,Nepal,NPL,790,2004,14288,Okhaldhunga,3,East,Sagarmatha,Okhaldhunga,Okhaldhunga,0,Flood,2004-0298,2004-0298-NPL,27.32968995,86.42208086,37430,Km2,5/7/2004,185,15,800000,0,800015,0,72.98112921
4459,Nepal,NPL,790,2004,14303,Pyuthan,3,Mid-Western,Rapti,Pyuthan,Pyuthan,0,Flood,2004-0298,2004-0298-NPL,28.11603721,82.86655627,37430,Km2,5/7/2004,185,15,800000,0,800015,0,72.98112921
4459,Nepal,NPL,790,2004,14306,Ramechhap,3,Central,Janakpur,Ramechhap,Ramechhap,0,Flood,2004-0298,2004-0298-NPL,27.51252127,86.17961506,37430,Km2,5/7/2004,185,15,800000,0,800015,0,72.98112921
4459,Nepal,NPL,790,2004,14320,Rautahat,3,Central,Narayani,Rautahat,Rautahat,0,Flood,2004-0298,2004-0298-NPL,27.00149079,85.30494916,37430,Km2,5/7/2004,185,15,800000,0,800015,0,72.98112921
4459,Nepal,NPL,790,2004,14338,Saptari,3,East,Sagarmatha,Saptari,Saptari,0,Flood,2004-0298,2004-0298-NPL,26.59782502,86.74921823,37430,Km2,5/7/2004,185,15,800000,0,800015,0,72.98112921
4459,Nepal,NPL,790,2004,14345,Sarlahi,3,Central,Janakpur,Sarlahi,Sarlahi,0,Flood,2004-0298,2004-0298-NPL,26.98640254,85.56691433,37430,Km2,5/7/2004,185,15,800000,0,800015,0,72.98112921
4459,Nepal,NPL,790,2004,14351,Sindhuli,3,Central,Janakpur,Sindhuli,Sindhuli,0,Flood,2004-0298,2004-0298-NPL,27.20078376,85.94713344,37430,Km2,5/7/2004,185,15,800000,0,800015,0,72.98112921
4459,Nepal,NPL,790,2004,14363,Siraha,3,East,Sagarmatha,Siraha,Siraha,0,Flood,2004-0298,2004-0298-NPL,26.74559139,86.34695887,37430,Km2,5/7/2004,185,15,800000,0,800015,0,72.98112921
4459,Nepal,NPL,790,2004,14372,Sunsari,3,East,Koshi,Sunsari,Sunsari,0,Flood,2004-0298,2004-0298-NPL,26.65168012,87.17244306,37430,Km2,5/7/2004,185,15,800000,0,800015,0,72.98112921
4459,Nepal,NPL,790,2004,14400,Udayapur,3,East,Sagarmatha,Udayapur,Udayapur,0,Flood,2004-0298,2004-0298-NPL,26.90192818,86.68457262,37430,Km2,5/7/2004,185,15,800000,0,800015,0,72.98112921
4461,Nepal,NPL,790,2005,14106,Baitadi,3,Far-Western,Mahakali,Baitadi,Baitadi,0,Flood,2005-0556,2005-0556-NPL,29.50751599,80.57209181,8030,Km2,24/9/2005,51,0,1600,0,1600,0,75.45719958
4461,Nepal,NPL,790,2005,14136,Dadeldhura,3,Far-Western,Mahakali,Dadeldhura,Dadeldhura,0,Flood,2005-0556,2005-0556-NPL,29.22334552,80.49033885,8030,Km2,24/9/2005,51,0,1600,0,1600,0,75.45719958
4461,Nepal,NPL,790,2005,14153,Darchula,3,Far-Western,Mahakali,Darchula,Darchula,0,Flood,2005-0556,2005-0556-NPL,29.89156096,80.79208143,8030,Km2,24/9/2005,51,0,1600,0,1600,0,75.45719958
4461,Nepal,NPL,790,2005,14221,Kanchanpur,3,Far-Western,Mahakali,Kanchanpur,Kanchanpur,0,Flood,2005-0556,2005-0556-NPL,28.85918995,80.32494795,8030,Km2,24/9/2005,51,0,1600,0,1600,0,75.45719958
4463,Nepal,NPL,790,2007,14165,Dhanusa,3,Central,Janakpur,Dhanusa,Dhanusha,0,Flood,2007-0307,2007-0307-NPL,26.83057281,86.03660878,56920,Km2,23/7/2007,214,48,640658,0,640706,2400,80.11339326
4463,Nepal,NPL,790,2007,14252,Mahottari,3,Central,Janakpur,Mahottari,Mahottari district,0,Flood,2007-0307,2007-0307-NPL,26.87862024,85.82273832,56920,Km2,23/7/2007,214,48,640658,0,640706,2400,80.11339326
4463,Nepal,NPL,790,2007,14352,Sindhuli,3,Central,Janakpur,Sindhuli,Sindhuli,0,Flood,2007-0307,2007-0307-NPL,27.20078376,85.94713344,56920,Km2,23/7/2007,214,48,640658,0,640706,2400,80.11339326
4464,Nepal,NPL,790,2008,14117,Banke,3,Mid-Western,Bheri,Banke,Banke,0,Flood,2008-0431,2008-0431-NPL,28.08506134,81.82445332,168100,Km2,22/9/2008,50,3,180000,0,180003,0,83.18902296
4464,Nepal,NPL,790,2008,14124,Bardiya,3,Mid-Western,Bheri,Bardiya,Bardeya,0,Flood,2008-0431,2008-0431-NPL,28.38364375,81.40425644,168100,Km2,22/9/2008,50,3,180000,0,180003,0,83.18902296
4464,Nepal,NPL,790,2008,14137,Dadeldhura,3,Far-Western,Mahakali,Dadeldhura,Dedeldhura,0,Flood,2008-0431,2008-0431-NPL,29.22334552,80.49033885,168100,Km2,22/9/2008,50,3,180000,0,180003,0,83.18902296
4464,Nepal,NPL,790,2008,14146,Dang,3,Mid-Western,Rapti,Dang,Dang,0,Flood,2008-0431,2008-0431-NPL,27.96523787,82.41155673,168100,Km2,22/9/2008,50,3,180000,0,180003,0,83.18902296
4464,Nepal,NPL,790,2008,14174,Doti,3,Far-Western,Seti,Doti,Doti,0,Flood,2008-0431,2008-0431-NPL,29.17092607,80.89637748,168100,Km2,22/9/2008,50,3,180000,0,180003,0,83.18902296
4464,Nepal,NPL,790,2008,14222,Kanchanpur,3,Far-Western,Mahakali,Kanchanpur,Kanchanpur,0,Flood,2008-0431,2008-0431-NPL,28.85918995,80.32494795,168100,Km2,22/9/2008,50,3,180000,0,180003,0,83.18902296
4464,Nepal,NPL,790,2008,14333,Salyan,3,Mid-Western,Rapti,Salyan,Salyan,0,Flood,2008-0431,2008-0431-NPL,28.3959801,82.14174717,168100,Km2,22/9/2008,50,3,180000,0,180003,0,83.18902296
4466,Nepal,NPL,790,2009,14086,Achham,3,Far-Western,Seti,Achham,Achham,0,Flood,2009-0434,2009-0434-NPL,29.11195352,81.30014326,129700,Km2,4/10/2009,87,62,257724,0,257786,60000,82.89324989
4466,Nepal,NPL,790,2009,14107,Baitadi,3,Far-Western,Mahakali,Baitadi,Baitadi,0,Flood,2009-0434,2009-0434-NPL,29.50751599,80.57209181,129700,Km2,4/10/2009,87,62,257724,0,257786,60000,82.89324989
4466,Nepal,NPL,790,2009,14109,Bajhang,3,Far-Western,Seti,Bajhang,Bhajang,0,Flood,2009-0434,2009-0434-NPL,29.70820322,81.18075245,129700,Km2,4/10/2009,87,62,257724,0,257786,60000,82.89324989
4466,Nepal,NPL,790,2009,14118,Banke,3,Mid-Western,Bheri,Banke,Banke,0,Flood,2009-0434,2009-0434-NPL,28.08506134,81.82445332,129700,Km2,4/10/2009,87,62,257724,0,257786,60000,82.89324989
4466,Nepal,NPL,790,2009,14125,Bardiya,3,Mid-Western,Bheri,Bardiya,Bardiya,0,Flood,2009-0434,2009-0434-NPL,28.38364375,81.40425644,129700,Km2,4/10/2009,87,62,257724,0,257786,60000,82.89324989
4466,Nepal,NPL,790,2009,14138,Dadeldhura,3,Far-Western,Mahakali,Dadeldhura,Dadeldhura,0,Flood,2009-0434,2009-0434-NPL,29.22334552,80.49033885,129700,Km2,4/10/2009,87,62,257724,0,257786,60000,82.89324989
4466,Nepal,NPL,790,2009,14175,Doti,3,Far-Western,Seti,Doti,Doti,0,Flood,2009-0434,2009-0434-NPL,29.17092607,80.89637748,129700,Km2,4/10/2009,87,62,257724,0,257786,60000,82.89324989
4466,Nepal,NPL,790,2009,14211,Jumla,3,Mid-Western,Karnali,Jumla,Jumla,0,Flood,2009-0434,2009-0434-NPL,29.27123832,82.21888088,129700,Km2,4/10/2009,87,62,257724,0,257786,60000,82.89324989
4466,Nepal,NPL,790,2009,14217,Kalikot,3,Mid-Western,Karnali,Kalikot,Kalikot,0,Flood,2009-0434,2009-0434-NPL,29.19456533,81.7523238,129700,Km2,4/10/2009,87,62,257724,0,257786,60000,82.89324989
4466,Nepal,NPL,790,2009,14223,Kanchanpur,3,Far-Western,Mahakali,Kanchanpur,Kanchanpur,0,Flood,2009-0434,2009-0434-NPL,28.85918995,80.32494795,129700,Km2,4/10/2009,87,62,257724,0,257786,60000,82.89324989
4467,Nepal,NPL,790,2010,14193,Ilam,3,East,Mechi,Ilam,Ilam,0,Flood,2010-0333,2010-0333-NPL,26.8810675,87.90348445,132600,Km2,25/7/2010,12,0,0,0,0,0,84.25273272
4467,Nepal,NPL,790,2010,14206,Jhapa,3,East,Mechi,Jhapa,Jhapa,0,Flood,2010-0333,2010-0333-NPL,26.58512704,87.91632788,132600,Km2,25/7/2010,12,0,0,0,0,0,84.25273272
4468,Nepal,NPL,790,2010,14087,Achham,3,Far-Western,Seti,Achham,Achham,0,Flood,2010-0452,2010-0452-NPL,29.11195352,81.30014326,0,Km2,21/8/2010,138,0,8000,0,8000,0,84.25273272
4468,Nepal,NPL,790,2010,14092,Baglung,3,West,Dhaualagiri,Baglung,Baglung,0,Flood,2010-0452,2010-0452-NPL,28.34688992,83.25261854,0,Km2,21/8/2010,138,0,8000,0,8000,0,84.25273272
4468,Nepal,NPL,790,2010,14112,Bajura,3,Far-Western,Seti,Bajura,Bajura,0,Flood,2010-0452,2010-0452-NPL,29.56132324,81.56589183,0,Km2,21/8/2010,138,0,8000,0,8000,0,84.25273272
4468,Nepal,NPL,790,2010,14119,Banke,3,Mid-Western,Bheri,Banke,Banke,0,Flood,2010-0452,2010-0452-NPL,28.08506134,81.82445332,0,Km2,21/8/2010,138,0,8000,0,8000,0,84.25273272
4468,Nepal,NPL,790,2010,14126,Bardiya,3,Mid-Western,Bheri,Bardiya,Bardiya,0,Flood,2010-0452,2010-0452-NPL,28.38364375,81.40425644,0,Km2,21/8/2010,138,0,8000,0,8000,0,84.25273272
4468,Nepal,NPL,790,2010,14139,Dadeldhura,3,Far-Western,Mahakali,Dadeldhura,Dadeldhura,0,Flood,2010-0452,2010-0452-NPL,29.22334552,80.49033885,0,Km2,21/8/2010,138,0,8000,0,8000,0,84.25273272
4468,Nepal,NPL,790,2010,14141,Dailekh,3,Mid-Western,Bheri,Dailekh,Dailekh,0,Flood,2010-0452,2010-0452-NPL,28.87977388,81.68258138,0,Km2,21/8/2010,138,0,8000,0,8000,0,84.25273272
4468,Nepal,NPL,790,2010,14148,Dang,3,Mid-Western,Rapti,Dang,Dang,0,Flood,2010-0452,2010-0452-NPL,27.96523787,82.41155673,0,Km2,21/8/2010,138,0,8000,0,8000,0,84.25273272
4468,Nepal,NPL,790,2010,14166,Dhanusa,3,Central,Janakpur,Dhanusa,Dhanusa,0,Flood,2010-0452,2010-0452-NPL,26.83057281,86.03660878,0,Km2,21/8/2010,138,0,8000,0,8000,0,84.25273272
4468,Nepal,NPL,790,2010,14169,Dolakha,3,Central,Janakpur,Dolakha,Dolakha,0,Flood,2010-0452,2010-0452-NPL,27.78583782,86.20023138,0,Km2,21/8/2010,138,0,8000,0,8000,0,84.25273272
4468,Nepal,NPL,790,2010,14173,Dolpa,3,Mid-Western,Karnali,Dolpa,Dolpa,0,Flood,2010-0452,2010-0452-NPL,29.17061174,83.05447446,0,Km2,21/8/2010,138,0,8000,0,8000,0,84.25273272
4468,Nepal,NPL,790,2010,14194,Ilam,3,East,Mechi,Ilam,Ilam,0,Flood,2010-0452,2010-0452-NPL,26.8810675,87.90348445,0,Km2,21/8/2010,138,0,8000,0,8000,0,84.25273272
4468,Nepal,NPL,790,2010,14198,Jajarkot,3,Mid-Western,Bheri,Jajarkot,Jajarkot,0,Flood,2010-0452,2010-0452-NPL,28.86566509,82.16941171,0,Km2,21/8/2010,138,0,8000,0,8000,0,84.25273272
4468,Nepal,NPL,790,2010,14207,Jhapa,3,East,Mechi,Jhapa,Jahpa,0,Flood,2010-0452,2010-0452-NPL,26.58512704,87.91632788,0,Km2,21/8/2010,138,0,8000,0,8000,0,84.25273272
4468,Nepal,NPL,790,2010,14218,Kalikot,3,Mid-Western,Karnali,Kalikot,Kalikot,0,Flood,2010-0452,2010-0452-NPL,29.19456533,81.7523238,0,Km2,21/8/2010,138,0,8000,0,8000,0,84.25273272
4468,Nepal,NPL,790,2010,14224,Kanchanpur,3,Far-Western,Mahakali,Kanchanpur,Kanchanpur,0,Flood,2010-0452,2010-0452-NPL,28.85918995,80.32494795,0,Km2,21/8/2010,138,0,8000,0,8000,0,84.25273272
4468,Nepal,NPL,790,2010,14230,Kaski,3,West,Gandaki,Kaski,Kaski,0,Flood,2010-0452,2010-0452-NPL,28.35483726,83.99862316,0,Km2,21/8/2010,138,0,8000,0,8000,0,84.25273272
4468,Nepal,NPL,790,2010,14258,Makwanpur,3,Central,Narayani,Makwanpur,Makawanpur,0,Flood,2010-0452,2010-0452-NPL,27.46994485,85.08120085,0,Km2,21/8/2010,138,0,8000,0,8000,0,84.25273272
4468,Nepal,NPL,790,2010,14269,Morang,3,East,Koshi,Morang,Morang,0,Flood,2010-0452,2010-0452-NPL,26.61669552,87.47181543,0,Km2,21/8/2010,138,0,8000,0,8000,0,84.25273272
4468,Nepal,NPL,790,2010,14299,Parbat,3,West,Dhaualagiri,Parbat,Parbat,0,Flood,2010-0452,2010-0452-NPL,28.20931464,83.68029572,0,Km2,21/8/2010,138,0,8000,0,8000,0,84.25273272
4468,Nepal,NPL,790,2010,14301,Parsa,3,Central,Narayani,Parsa,Parsa,0,Flood,2010-0452,2010-0452-NPL,27.23801982,84.78375665,0,Km2,21/8/2010,138,0,8000,0,8000,0,84.25273272
4468,Nepal,NPL,790,2010,14304,Pyuthan,3,Mid-Western,Rapti,Pyuthan,Pyuthan,0,Flood,2010-0452,2010-0452-NPL,28.11603721,82.86655627,0,Km2,21/8/2010,138,0,8000,0,8000,0,84.25273272
4468,Nepal,NPL,790,2010,14322,Rautahat,3,Central,Narayani,Rautahat,Rautahat,0,Flood,2010-0452,2010-0452-NPL,27.00149079,85.30494916,0,Km2,21/8/2010,138,0,8000,0,8000,0,84.25273272
4468,Nepal,NPL,790,2010,14328,Rukum,3,Mid-Western,Rapti,Rukum,Rukum,0,Flood,2010-0452,2010-0452-NPL,28.7014046,82.66505658,0,Km2,21/8/2010,138,0,8000,0,8000,0,84.25273272
4468,Nepal,NPL,790,2010,14335,Sankhuwasabha,3,East,Koshi,Sankhuwasabha,Sankhuwasabha,0,Flood,2010-0452,2010-0452-NPL,27.58113971,87.28099624,0,Km2,21/8/2010,138,0,8000,0,8000,0,84.25273272
4468,Nepal,NPL,790,2010,14339,Saptari,3,East,Sagarmatha,Saptari,Saptari,0,Flood,2010-0452,2010-0452-NPL,26.59782502,86.74921823,0,Km2,21/8/2010,138,0,8000,0,8000,0,84.25273272
4468,Nepal,NPL,790,2010,14346,Sarlahi,3,Central,Janakpur,Sarlahi,Sarlahi,0,Flood,2010-0452,2010-0452-NPL,26.98640254,85.56691433,0,Km2,21/8/2010,138,0,8000,0,8000,0,84.25273272
4468,Nepal,NPL,790,2010,14353,Sindhuli,3,Central,Janakpur,Sindhuli,Sindhuli,0,Flood,2010-0452,2010-0452-NPL,27.20078376,85.94713344,0,Km2,21/8/2010,138,0,8000,0,8000,0,84.25273272
4468,Nepal,NPL,790,2010,14376,Sunsari,3,East,Koshi,Sunsari,Sunsari,0,Flood,2010-0452,2010-0452-NPL,26.65168012,87.17244306,0,Km2,21/8/2010,138,0,8000,0,8000,0,84.25273272
4468,Nepal,NPL,790,2010,14387,Tanahu,3,West,Gandaki,Tanahu,Tanahu,0,Flood,2010-0452,2010-0452-NPL,27.95553347,84.25310076,0,Km2,21/8/2010,138,0,8000,0,8000,0,84.25273272
4468,Nepal,NPL,790,2010,14392,Taplejung,3,East,Mechi,Taplejung,Taplegunj,0,Flood,2010-0452,2010-0452-NPL,27.58005501,87.82388638,0,Km2,21/8/2010,138,0,8000,0,8000,0,84.25273272
4468,Nepal,NPL,790,2010,14401,Udayapur,3,East,Sagarmatha,Udayapur,Udayapur,0,Flood,2010-0452,2010-0452-NPL,26.90192818,86.68457262,0,Km2,21/8/2010,138,0,8000,0,8000,0,84.25273272
4470,Nepal,NPL,790,2011,14130,Bhaktapur,3,Central,Bagmati,Bhaktapur,Bhaktapur,0,Earthquake,2011-0351,2011-0351-NPL,27.67646531,85.44283138,7,Richter,18/9/2011,7,89,167860,0,167949,0,86.91246502
4470,Nepal,NPL,790,2011,14132,Bhojpur,3,East,Koshi,Bhojpur,Bhojpur,0,Earthquake,2011-0351,2011-0351-NPL,27.17952946,87.06865533,7,Richter,18/9/2011,7,89,167860,0,167949,0,86.91246502
4470,Nepal,NPL,790,2011,14161,Dhankuta,3,East,Koshi,Dhankuta,Dhankuta,0,Earthquake,2011-0351,2011-0351-NPL,26.99110971,87.33355772,7,Richter,18/9/2011,7,89,167860,0,167949,0,86.91246502
4470,Nepal,NPL,790,2011,14170,Dolakha,3,Central,Janakpur,Dolakha,Dolakha,0,Earthquake,2011-0351,2011-0351-NPL,27.78583782,86.20023138,7,Richter,18/9/2011,7,89,167860,0,167949,0,86.91246502
4470,Nepal,NPL,790,2011,14195,Ilam,3,East,Mechi,Ilam,Ilam,0,Earthquake,2011-0351,2011-0351-NPL,26.8810675,87.90348445,7,Richter,18/9/2011,7,89,167860,0,167949,0,86.91246502
4470,Nepal,NPL,790,2011,14208,Jhapa,3,East,Mechi,Jhapa,Jhapa,0,Earthquake,2011-0351,2011-0351-NPL,26.58512704,87.91632788,7,Richter,18/9/2011,7,89,167860,0,167949,0,86.91246502
4470,Nepal,NPL,790,2011,14232,Kathmandu,3,Central,Bagmati,Kathmandu,Kathmandu,0,Earthquake,2011-0351,2011-0351-NPL,27.72700863,85.34688669,7,Richter,18/9/2011,7,89,167860,0,167949,0,86.91246502
4470,Nepal,NPL,790,2011,14239,Khotang,3,East,Sagarmatha,Khotang,Khotang,0,Earthquake,2011-0351,2011-0351-NPL,27.167664,86.79012995,7,Richter,18/9/2011,7,89,167860,0,167949,0,86.91246502
4470,Nepal,NPL,790,2011,14240,Lalitpur,3,Central,Bagmati,Lalitpur,Lalitpur,0,Earthquake,2011-0351,2011-0351-NPL,27.53712611,85.34406563,7,Richter,18/9/2011,7,89,167860,0,167949,0,86.91246502
4470,Nepal,NPL,790,2011,14295,Panchthar,3,East,Mechi,Panchthar,Panchthar,0,Earthquake,2011-0351,2011-0351-NPL,27.11337157,87.77651847,7,Richter,18/9/2011,7,89,167860,0,167949,0,86.91246502
4470,Nepal,NPL,790,2011,14307,Ramechhap,3,Central,Janakpur,Ramechhap,Ramechhap,0,Earthquake,2011-0351,2011-0351-NPL,27.51252127,86.17961506,7,Richter,18/9/2011,7,89,167860,0,167949,0,86.91246502
4470,Nepal,NPL,790,2011,14336,Sankhuwasabha,3,East,Koshi,Sankhuwasabha,Sankhuwasabha,0,Earthquake,2011-0351,2011-0351-NPL,27.58113971,87.28099624,7,Richter,18/9/2011,7,89,167860,0,167949,0,86.91246502
4470,Nepal,NPL,790,2011,14356,Sindhupalchok,3,Central,Bagmati,Sindhupalchok,Sindhupalchok,0,Earthquake,2011-0351,2011-0351-NPL,27.91463216,85.74159439,7,Richter,18/9/2011,7,89,167860,0,167949,0,86.91246502
4470,Nepal,NPL,790,2011,14368,Solukhumbu,3,East,Sagarmatha,Solukhumbu,Solukhambu,0,Earthquake,2011-0351,2011-0351-NPL,27.71000485,86.72345995,7,Richter,18/9/2011,7,89,167860,0,167949,0,86.91246502
4470,Nepal,NPL,790,2011,14377,Sunsari,3,East,Koshi,Sunsari,Sunsari,0,Earthquake,2011-0351,2011-0351-NPL,26.65168012,87.17244306,7,Richter,18/9/2011,7,89,167860,0,167949,0,86.91246502
4470,Nepal,NPL,790,2011,14393,Taplejung,3,East,Mechi,Taplejung,Taplejung,0,Earthquake,2011-0351,2011-0351-NPL,27.58005501,87.82388638,7,Richter,18/9/2011,7,89,167860,0,167949,0,86.91246502
4470,Nepal,NPL,790,2011,14397,Terhathum,3,East,Koshi,Terhathum,Terhathum,0,Earthquake,2011-0351,2011-0351-NPL,27.15437248,87.55107653,7,Richter,18/9/2011,7,89,167860,0,167949,0,86.91246502
4470,Nepal,NPL,790,2011,14402,Udayapur,3,East,Sagarmatha,Udayapur,Udayapur,0,Earthquake,2011-0351,2011-0351-NPL,26.90192818,86.68457262,7,Richter,18/9/2011,7,89,167860,0,167949,0,86.91246502
4472,Nepal,NPL,790,2013,14089,Achham,3,Far-Western,Seti,Achham,Achham,0,Flood,2013-0456,2013-0456-NPL,29.11195352,81.30014326,0,Km2,25/5/2013,76,29,12474,0,12503,0,90.01044002
4472,Nepal,NPL,790,2013,14108,Baitadi,3,Far-Western,Mahakali,Baitadi,Baitadi,0,Flood,2013-0456,2013-0456-NPL,29.50751599,80.57209181,0,Km2,25/5/2013,76,29,12474,0,12503,0,90.01044002
4472,Nepal,NPL,790,2013,14110,Bajhang,3,Far-Western,Seti,Bajhang,Bajhang,0,Flood,2013-0456,2013-0456-NPL,29.70820322,81.18075245,0,Km2,25/5/2013,76,29,12474,0,12503,0,90.01044002
4472,Nepal,NPL,790,2013,14127,Bardiya,3,Mid-Western,Bheri,Bardiya,Bardia,0,Flood,2013-0456,2013-0456-NPL,28.38364375,81.40425644,0,Km2,25/5/2013,76,29,12474,0,12503,0,90.01044002
4472,Nepal,NPL,790,2013,14140,Dadeldhura,3,Far-Western,Mahakali,Dadeldhura,Dadheldhura,0,Flood,2013-0456,2013-0456-NPL,29.22334552,80.49033885,0,Km2,25/5/2013,76,29,12474,0,12503,0,90.01044002
4472,Nepal,NPL,790,2013,14142,Dailekh,3,Mid-Western,Bheri,Dailekh,Dailekh,0,Flood,2013-0456,2013-0456-NPL,28.87977388,81.68258138,0,Km2,25/5/2013,76,29,12474,0,12503,0,90.01044002
4472,Nepal,NPL,790,2013,14149,Dang,3,Mid-Western,Rapti,Dang,Dang,0,Flood,2013-0456,2013-0456-NPL,27.96523787,82.41155673,0,Km2,25/5/2013,76,29,12474,0,12503,0,90.01044002
4472,Nepal,NPL,790,2013,14154,Darchula,3,Far-Western,Mahakali,Darchula,Darchula,0,Flood,2013-0456,2013-0456-NPL,29.89156096,80.79208143,0,Km2,25/5/2013,76,29,12474,0,12503,0,90.01044002
4472,Nepal,NPL,790,2013,14162,Dhankuta,3,East,Koshi,Dhankuta,Dhankuta,0,Flood,2013-0456,2013-0456-NPL,26.99110971,87.33355772,0,Km2,25/5/2013,76,29,12474,0,12503,0,90.01044002
4472,Nepal,NPL,790,2013,14176,Doti,3,Far-Western,Seti,Doti,Doti,0,Flood,2013-0456,2013-0456-NPL,29.17092607,80.89637748,0,Km2,25/5/2013,76,29,12474,0,12503,0,90.01044002
4472,Nepal,NPL,790,2013,14189,Humla,3,Mid-Western,Karnali,Humla,Humla,0,Flood,2013-0456,2013-0456-NPL,30.03342349,81.88132596,0,Km2,25/5/2013,76,29,12474,0,12503,0,90.01044002
4472,Nepal,NPL,790,2013,14209,Jhapa,3,East,Mechi,Jhapa,Jhapa,0,Flood,2013-0456,2013-0456-NPL,26.58512704,87.91632788,0,Km2,25/5/2013,76,29,12474,0,12503,0,90.01044002
4472,Nepal,NPL,790,2013,14219,Kalikot,3,Mid-Western,Karnali,Kalikot,Kalikot,0,Flood,2013-0456,2013-0456-NPL,29.19456533,81.7523238,0,Km2,25/5/2013,76,29,12474,0,12503,0,90.01044002
4472,Nepal,NPL,790,2013,14225,Kanchanpur,3,Far-Western,Mahakali,Kanchanpur,Kanchanpur,0,Flood,2013-0456,2013-0456-NPL,28.85918995,80.32494795,0,Km2,25/5/2013,76,29,12474,0,12503,0,90.01044002
4472,Nepal,NPL,790,2013,14270,Morang,3,East,Koshi,Morang,Morang,0,Flood,2013-0456,2013-0456-NPL,26.61669552,87.47181543,0,Km2,25/5/2013,76,29,12474,0,12503,0,90.01044002
4472,Nepal,NPL,790,2013,14289,Okhaldhunga,3,East,Sagarmatha,Okhaldhunga,Okhaldhunga,0,Flood,2013-0456,2013-0456-NPL,27.32968995,86.42208086,0,Km2,25/5/2013,76,29,12474,0,12503,0,90.01044002
4472,Nepal,NPL,790,2013,14305,Pyuthan,3,Mid-Western,Rapti,Pyuthan,Pyuthan,0,Flood,2013-0456,2013-0456-NPL,28.11603721,82.86655627,0,Km2,25/5/2013,76,29,12474,0,12503,0,90.01044002
4472,Nepal,NPL,790,2013,14326,Rolpa,3,Mid-Western,Rapti,Rolpa,Rolpa,0,Flood,2013-0456,2013-0456-NPL,28.3453962,82.63052622,0,Km2,25/5/2013,76,29,12474,0,12503,0,90.01044002
4472,Nepal,NPL,790,2013,14340,Saptari,3,East,Sagarmatha,Saptari,Saptari,0,Flood,2013-0456,2013-0456-NPL,26.59782502,86.74921823,0,Km2,25/5/2013,76,29,12474,0,12503,0,90.01044002
4472,Nepal,NPL,790,2013,14369,Solukhumbu,3,East,Sagarmatha,Solukhumbu,Solukhumbu,0,Flood,2013-0456,2013-0456-NPL,27.71000485,86.72345995,0,Km2,25/5/2013,76,29,12474,0,12503,0,90.01044002
4472,Nepal,NPL,790,2013,14378,Sunsari,3,East,Koshi,Sunsari,Sunsari,0,Flood,2013-0456,2013-0456-NPL,26.65168012,87.17244306,0,Km2,25/5/2013,76,29,12474,0,12503,0,90.01044002
4472,Nepal,NPL,790,2013,14394,Taplejung,3,East,Mechi,Taplejung,Taplejung,0,Flood,2013-0456,2013-0456-NPL,27.58005501,87.82388638,0,Km2,25/5/2013,76,29,12474,0,12503,0,90.01044002
4472,Nepal,NPL,790,2013,14403,Udayapur,3,East,Sagarmatha,Udayapur,Udayapur,0,Flood,2013-0456,2013-0456-NPL,26.90192818,86.68457262,0,Km2,25/5/2013,76,29,12474,0,12503,0,90.01044002
4473,Nepal,NPL,790,2013,14271,Morang,3,East,Koshi,Morang,Morang,0,Flood,2013-0576,2013-0576-NPL,26.61669552,87.47181543,0,Km2,10/7/2013,119,6,0,4314,4320,0,90.01044002
4473,Nepal,NPL,790,2013,14379,Sunsari,3,East,Koshi,Sunsari,Sunsari,0,Flood,2013-0576,2013-0576-NPL,26.65168012,87.17244306,0,Km2,10/7/2013,119,6,0,4314,4320,0,90.01044002
4474,Nepal,NPL,790,2014,14241,Lalitpur,3,Central,Bagmati,Lalitpur,Lalitpur,0,Flood,2014-0246,2014-0246-NPL,27.53712611,85.34406563,11578,Km2,1/7/2014,16,0,2400,0,2400,0,91.47061409
4474,Nepal,NPL,790,2014,14357,Sindhupalchok,3,Central,Bagmati,Sindhupalchok,Sindhupalchok,0,Flood,2014-0246,2014-0246-NPL,27.91463216,85.74159439,11578,Km2,1/7/2014,16,0,2400,0,2400,0,91.47061409
4476,Nepal,NPL,790,2014,14120,Banke,3,Mid-Western,Bheri,Banke,Banke,0,Flood,2014-0272,2014-0272-NPL,28.08506134,81.82445332,0,Km2,11/8/2014,294,149,184745,0,184894,0,91.47061409
4476,Nepal,NPL,790,2014,14128,Bardiya,3,Mid-Western,Bheri,Bardiya,Bardyia,0,Flood,2014-0272,2014-0272-NPL,28.38364375,81.40425644,0,Km2,11/8/2014,294,149,184745,0,184894,0,91.47061409
4476,Nepal,NPL,790,2014,14150,Dang,3,Mid-Western,Rapti,Dang,Dang,0,Flood,2014-0272,2014-0272-NPL,27.96523787,82.41155673,0,Km2,11/8/2014,294,149,184745,0,184894,0,91.47061409
4476,Nepal,NPL,790,2014,14334,Salyan,3,Mid-Western,Rapti,Salyan,Salyan,0,Flood,2014-0272,2014-0272-NPL,28.3959801,82.14174717,0,Km2,11/8/2014,294,149,184745,0,184894,0,91.47061409
4476,Nepal,NPL,790,2014,14380,Surkhet,3,Mid-Western,Bheri,Surkhet,Surkhet,0,Flood,2014-0272,2014-0272-NPL,28.64242717,81.58632356,0,Km2,11/8/2014,294,149,184745,0,184894,0,91.47061409
4478,Nepal,NPL,790,2015,14159,Dhading,3,Central,Bagmati,Dhading,Dhading,0,Earthquake,2015-0144,2015-0144-NPL,27.94894272,84.95825539,8,Richter,25/4/2015,8831,17932,5621790,0,5639722,5174000,91.57911703
4478,Nepal,NPL,790,2015,14171,Dolakha,3,Central,Janakpur,Dolakha,Dolakha,0,Earthquake,2015-0144,2015-0144-NPL,27.78583782,86.20023138,8,Richter,25/4/2015,8831,17932,5621790,0,5639722,5174000,91.57911703
4478,Nepal,NPL,790,2015,14234,Kathmandu,3,Central,Bagmati,Kathmandu,Kathmandu,0,Earthquake,2015-0144,2015-0144-NPL,27.72700863,85.34688669,8,Richter,25/4/2015,8831,17932,5621790,0,5639722,5174000,91.57911703
4478,Nepal,NPL,790,2015,14236,Kavrepalanchok,3,Central,Bagmati,Kavrepalanchok,Kavre,0,Earthquake,2015-0144,2015-0144-NPL,27.53579501,85.62143163,8,Richter,25/4/2015,8831,17932,5621790,0,5639722,5174000,91.57911703
4478,Nepal,NPL,790,2015,14242,Lalitpur,3,Central,Bagmati,Lalitpur,Lalitpur,0,Earthquake,2015-0144,2015-0144-NPL,27.53712611,85.34406563,8,Richter,25/4/2015,8831,17932,5621790,0,5639722,5174000,91.57911703
4478,Nepal,NPL,790,2015,14285,Nuwakot,3,Central,Bagmati,Nuwakot,Nuwakot,0,Earthquake,2015-0144,2015-0144-NPL,27.91433609,85.23506275,8,Richter,25/4/2015,8831,17932,5621790,0,5639722,5174000,91.57911703
4478,Nepal,NPL,790,2015,14308,Ramechhap,3,Central,Janakpur,Ramechhap,Ramechhap,0,Earthquake,2015-0144,2015-0144-NPL,27.51252127,86.17961506,8,Richter,25/4/2015,8831,17932,5621790,0,5639722,5174000,91.57911703
4478,Nepal,NPL,790,2015,14315,Rasuwa,3,Central,Bagmati,Rasuwa,Rasuwa,0,Earthquake,2015-0144,2015-0144-NPL,28.18475101,85.41610352,8,Richter,25/4/2015,8831,17932,5621790,0,5639722,5174000,91.57911703
4478,Nepal,NPL,790,2015,14358,Sindhupalchok,3,Central,Bagmati,Sindhupalchok,Sindhupalchowk,0,Earthquake,2015-0144,2015-0144-NPL,27.91463216,85.74159439,8,Richter,25/4/2015,8831,17932,5621790,0,5639722,5174000,91.57911703
4479,Nepal,NPL,790,2015,14359,Sindhupalchok,3,Central,Bagmati,Sindhupalchok,Sindhupalchowk,0,Earthquake,2015-0175,2015-0175-NPL,27.91463216,85.74159439,7,Richter,12/5/2015,138,2428,0,0,2428,0,91.57911703
4694,Pakistan,PAK,770,1993,15057,Kasur,3,Punjab,Lahore,Kasur,Kasur,0,Flood,1993-0041,1993-0041-PAK,31.04562687,74.13513725,3895,Km2,7/7/1993,15,0,261295,0,261295,0,55.8161073
4694,Pakistan,PAK,770,1993,15065,Khanewal,3,Punjab,Multan,Khanewal,Khanewal,0,Flood,1993-0041,1993-0041-PAK,30.35529835,72.014496,3895,Km2,7/7/1993,15,0,261295,0,261295,0,55.8161073
4694,Pakistan,PAK,770,1993,15091,Lodhran,3,Punjab,Multan,Lodhran,Lodhran,0,Flood,1993-0041,1993-0041-PAK,29.64272227,71.730697,3895,Km2,7/7/1993,15,0,261295,0,261295,0,55.8161073
4694,Pakistan,PAK,770,1993,15113,Muzaffargarh,3,Punjab,Dera Ghazi Khan,Muzaffargarh,Muzaffargarh,0,Flood,1993-0041,1993-0041-PAK,30.02648892,71.02779139,3895,Km2,7/7/1993,15,0,261295,0,261295,0,55.8161073
4694,Pakistan,PAK,770,1993,15204,Rajan Pur,3,Punjab,Dera Ghazi Khan,Rajan Pur,Rajanpur,0,Flood,1993-0041,1993-0041-PAK,29.13714633,70.16366375,3895,Km2,7/7/1993,15,0,261295,0,261295,0,55.8161073
4694,Pakistan,PAK,770,1993,15217,Sheikhupura,3,Punjab,Lahore,Sheikhupura,Sheikhupura,0,Flood,1993-0041,1993-0041-PAK,31.72845856,74.11268071,3895,Km2,7/7/1993,15,0,261295,0,261295,0,55.8161073
4715,Pakistan,PAK,770,2001,15108,Mithi,3,Sind,Mirpur Khas,Mithi,Mithi,0,Earthquake,2001-0033,2001-0033-PAK,24.784189,70.19422706,8,Richter,26/1/2001,12,100,914192,0,914292,500,68.41537906
4721,Pakistan,PAK,770,2002,15253,Swabi,3,N.W.F.P.,Mardan,Swabi,Swabi,0,Flood,2002-0543,2002-0543-PAK,34.13624248,72.46791818,4900,Km2,22/8/2002,22,10,3000,0,3010,30,69.50047255
4727,Pakistan,PAK,770,2003,14930,Awaran,3,Baluchistan,Kalat,Awaran,Awaran,0,Flood,2003-0359,2003-0359-PAK,26.2668239,65.36172789,3079,Km2,22/7/2003,230,456,1265767,0,1266223,0,71.07819758
4727,Pakistan,PAK,770,2003,14948,Badin,3,Sind,Hyderabad,Badin,Badin,0,Flood,2003-0359,2003-0359-PAK,24.72000106,68.86415853,3079,Km2,22/7/2003,230,456,1265767,0,1266223,0,71.07819758
4727,Pakistan,PAK,770,2003,14985,Bolan,3,Baluchistan,Nasirabad,Bolan,Bolan,0,Flood,2003-0359,2003-0359-PAK,29.18655715,67.73337963,3079,Km2,22/7/2003,230,456,1265767,0,1266223,0,71.07819758
4727,Pakistan,PAK,770,2003,14999,Dadu,3,Sind,Hyderabad,Dadu,Dadu,0,Flood,2003-0359,2003-0359-PAK,26.82705076,67.55074316,3079,Km2,22/7/2003,230,456,1265767,0,1266223,0,71.07819758
4727,Pakistan,PAK,770,2003,15031,Jafarabad,3,Baluchistan,Nasirabad,Jafarabad,Jafarabad,0,Flood,2003-0359,2003-0359-PAK,28.27727599,68.15230291,3079,Km2,22/7/2003,230,456,1265767,0,1266223,0,71.07819758
4727,Pakistan,PAK,770,2003,15036,Jhal Magsi,3,Baluchistan,Nasirabad,Jhal Magsi,Jhal Magsi,0,Flood,2003-0359,2003-0359-PAK,28.38695676,67.55444947,3079,Km2,22/7/2003,230,456,1265767,0,1266223,0,71.07819758
4727,Pakistan,PAK,770,2003,15071,Khuzdar,3,Baluchistan,Kalat,Khuzdar,Khuzdar,0,Flood,2003-0359,2003-0359-PAK,27.49908033,66.70188635,3079,Km2,22/7/2003,230,456,1265767,0,1266223,0,71.07819758
4727,Pakistan,PAK,770,2003,15090,Lasbela,3,Baluchistan,Kalat,Lasbela,Lasbela,0,Flood,2003-0359,2003-0359-PAK,25.81046075,66.65198663,3079,Km2,22/7/2003,230,456,1265767,0,1266223,0,71.07819758
4727,Pakistan,PAK,770,2003,15218,Shikarpur,3,Sind,Larkana,Shikarpur,Shikarpur,0,Flood,2003-0359,2003-0359-PAK,27.92413229,68.63465926,3079,Km2,22/7/2003,230,456,1265767,0,1266223,0,71.07819758
4729,Pakistan,PAK,770,2004,14980,Battagram,3,N.W.F.P.,Hazara,Battagram,Batagram,0,Earthquake,2004-0054,2004-0054-PAK,34.80745965,73.14966088,6,Richter,14/2/2004,24,63,10765,2320,13148,0,72.98112921
4729,Pakistan,PAK,770,2004,15076,Kohistan,3,N.W.F.P.,Hazara,Kohistan,Kohistan,0,Earthquake,2004-0054,2004-0054-PAK,35.34881332,73.18817119,6,Richter,14/2/2004,24,63,10765,2320,13148,0,72.98112921
4729,Pakistan,PAK,770,2004,15097,Mansehra,3,N.W.F.P.,Hazara,Mansehra,Mansehra,0,Earthquake,2004-0054,2004-0054-PAK,34.7009732,73.41137116,6,Richter,14/2/2004,24,63,10765,2320,13148,0,72.98112921
4731,Pakistan,PAK,770,2005,14928,Abbottabad,3,N.W.F.P.,Hazara,Abbottabad,Abbottabad,0,Flood,2005-0079,2005-0079-PAK,34.12132065,73.25301763,123200,Km2,9/2/2005,520,450,7000000,0,7000450,30000,75.45719958
4731,Pakistan,PAK,770,2005,14981,Battagram,3,N.W.F.P.,Hazara,Battagram,Battagram,0,Flood,2005-0079,2005-0079-PAK,34.80745965,73.14966088,123200,Km2,9/2/2005,520,450,7000000,0,7000450,30000,75.45719958
4731,Pakistan,PAK,770,2005,14994,Chitral,3,N.W.F.P.,Malakand,Chitral,Yarkhoon valleys,0,Flood,2005-0079,2005-0079-PAK,36.22647705,72.23618133,123200,Km2,9/2/2005,520,450,7000000,0,7000450,30000,75.45719958
4731,Pakistan,PAK,770,2005,15003,Dir,3,N.W.F.P.,Malakand,Dir,Dir,0,Flood,2005-0079,2005-0079-PAK,35.13698651,71.98197857,123200,Km2,9/2/2005,520,450,7000000,0,7000450,30000,75.45719958
4731,Pakistan,PAK,770,2005,15061,Kech,3,Baluchistan,Makran,Kech,Turbat,0,Flood,2005-0079,2005-0079-PAK,26.01734455,63.07480738,123200,Km2,9/2/2005,520,450,7000000,0,7000450,30000,75.45719958
4731,Pakistan,PAK,770,2005,15098,Mansehra,3,N.W.F.P.,Hazara,Mansehra,Mansehra,0,Flood,2005-0079,2005-0079-PAK,34.7009732,73.41137116,123200,Km2,9/2/2005,520,450,7000000,0,7000450,30000,75.45719958
4731,Pakistan,PAK,770,2005,15163,Pishin,3,Baluchistan,Quetta,Pishin,Pishin,0,Flood,2005-0079,2005-0079-PAK,30.65693176,67.08361998,123200,Km2,9/2/2005,520,450,7000000,0,7000450,30000,75.45719958
4731,Pakistan,PAK,770,2005,15197,Qilla Abdullah,3,Baluchistan,Quetta,Qilla Abdullah,Chaman,0,Flood,2005-0079,2005-0079-PAK,30.89350996,66.76913876,123200,Km2,9/2/2005,520,450,7000000,0,7000450,30000,75.45719958
4731,Pakistan,PAK,770,2005,15257,Swat,3,N.W.F.P.,Malakand,Swat,Swat,0,Flood,2005-0079,2005-0079-PAK,35.25719914,72.46150207,123200,Km2,9/2/2005,520,450,7000000,0,7000450,30000,75.45719958
4732,Pakistan,PAK,770,2005,15022,Gwadar,3,Baluchistan,Makran,Gwadar,Gwadar,0,Flood,2005-0170,2005-0170-PAK,25.41622635,63.167094,104000,Km2,2/3/2005,15,0,5000,0,5000,0,75.45719958
4732,Pakistan,PAK,770,2005,15062,Kech,3,Baluchistan,Makran,Kech,Turbat,0,Flood,2005-0170,2005-0170-PAK,26.01734455,63.07480738,104000,Km2,2/3/2005,15,0,5000,0,5000,0,75.45719958
4734,Pakistan,PAK,770,2005,14990,Charsadda,3,N.W.F.P.,Peshawar,Charsadda,Charsadda,0,Flood,2005-0360,2005-0360-PAK,34.24436491,71.73782445,28630,Km2,21/6/2005,39,0,460073,0,460073,0,75.45719958
4734,Pakistan,PAK,770,2005,14995,Chitral,3,N.W.F.P.,Malakand,Chitral,Chitral,0,Flood,2005-0360,2005-0360-PAK,36.22647705,72.23618133,28630,Km2,21/6/2005,39,0,460073,0,460073,0,75.45719958
4734,Pakistan,PAK,770,2005,15000,Dadu,3,Sind,Hyderabad,Dadu,Dadu,0,Flood,2005-0360,2005-0360-PAK,26.82705076,67.55074316,28630,Km2,21/6/2005,39,0,460073,0,460073,0,75.45719958
4734,Pakistan,PAK,770,2005,15011,Ghotki,3,Sind,Sukkur,Ghotki,Ghotki,0,Flood,2005-0360,2005-0360-PAK,27.83364326,69.67599275,28630,Km2,21/6/2005,39,0,460073,0,460073,0,75.45719958
4734,Pakistan,PAK,770,2005,15034,Jamshoro,3,Sind,Hyderabad,Jamshoro,Jamshoro,0,Flood,2005-0360,2005-0360-PAK,25.66253926,67.81018765,28630,Km2,21/6/2005,39,0,460073,0,460073,0,75.45719958
4734,Pakistan,PAK,770,2005,15064,Khairpur,3,Sind,Sukkur,Khairpur,Khairpur,0,Flood,2005-0360,2005-0360-PAK,26.82427591,69.0856316,28630,Km2,21/6/2005,39,0,460073,0,460073,0,75.45719958
4734,Pakistan,PAK,770,2005,15143,Nowshera,3,N.W.F.P.,Peshawar,Nowshera,Nowshera,0,Flood,2005-0360,2005-0360-PAK,33.92172445,71.97826413,28630,Km2,21/6/2005,39,0,460073,0,460073,0,75.45719958
4734,Pakistan,PAK,770,2005,15219,Shikarpur,3,Sind,Larkana,Shikarpur,Shikarpur,0,Flood,2005-0360,2005-0360-PAK,27.92413229,68.63465926,28630,Km2,21/6/2005,39,0,460073,0,460073,0,75.45719958
4734,Pakistan,PAK,770,2005,15258,Swat,3,N.W.F.P.,Malakand,Swat,Swat,0,Flood,2005-0360,2005-0360-PAK,35.25719914,72.46150207,28630,Km2,21/6/2005,39,0,460073,0,460073,0,75.45719958
4736,Pakistan,PAK,770,2005,14929,Abbottabad,3,N.W.F.P.,Hazara,Abbottabad,Abbottabad Tehsil,0,Earthquake,2005-0575,2005-0575-PAK,34.12132065,73.25301763,8,Richter,8/10/2005,73338,128309,0,5000000,5128309,5200000,75.45719958
4736,Pakistan,PAK,770,2005,14982,Battagram,3,N.W.F.P.,Hazara,Battagram,Allai,0,Earthquake,2005-0575,2005-0575-PAK,34.80745965,73.14966088,8,Richter,8/10/2005,73338,128309,0,5000000,5128309,5200000,75.45719958
4736,Pakistan,PAK,770,2005,15077,Kohistan,3,N.W.F.P.,Hazara,Kohistan,Kohistan district,0,Earthquake,2005-0575,2005-0575-PAK,35.34881332,73.18817119,8,Richter,8/10/2005,73338,128309,0,5000000,5128309,5200000,75.45719958
4757,Pakistan,PAK,770,2010,14983,Battagram,3,N.W.F.P.,Hazara,Battagram,Battagram,0,Flood,2010-0053,2010-0053-PAK,34.80745965,73.14966088,0,Km2,8/2/2010,22,0,0,0,0,0,84.25273272
4757,Pakistan,PAK,770,2010,15078,Kohistan,3,N.W.F.P.,Hazara,Kohistan,Kohistan,0,Flood,2010-0053,2010-0053-PAK,35.34881332,73.18817119,0,Km2,8/2/2010,22,0,0,0,0,0,84.25273272
4757,Pakistan,PAK,770,2010,15214,Shangla,3,N.W.F.P.,Malakand,Shangla,Shangla,0,Flood,2010-0053,2010-0053-PAK,34.80951109,72.72467592,0,Km2,8/2/2010,22,0,0,0,0,0,84.25273272
4757,Pakistan,PAK,770,2010,15260,Swat,3,N.W.F.P.,Malakand,Swat,Swat,0,Flood,2010-0053,2010-0053-PAK,35.25719914,72.46150207,0,Km2,8/2/2010,22,0,0,0,0,0,84.25273272
4761,Pakistan,PAK,770,2010,14991,Charsadda,3,N.W.F.P.,Peshawar,Charsadda,Charsadda,0,Flood,2010-0341,2010-0341-PAK,34.24436491,71.73782445,160000,Km2,28/7/2010,1985,2946,20356550,0,20359496,9500000,84.25273272
4761,Pakistan,PAK,770,2010,15004,Dir,3,N.W.F.P.,Malakand,Dir,Dir Lower,0,Flood,2010-0341,2010-0341-PAK,35.13698651,71.98197857,160000,Km2,28/7/2010,1985,2946,20356550,0,20359496,9500000,84.25273272
4761,Pakistan,PAK,770,2010,15144,Nowshera,3,N.W.F.P.,Peshawar,Nowshera,Noswshehra,0,Flood,2010-0341,2010-0341-PAK,33.92172445,71.97826413,160000,Km2,28/7/2010,1985,2946,20356550,0,20359496,9500000,84.25273272
4761,Pakistan,PAK,770,2010,15215,Shangla,3,N.W.F.P.,Malakand,Shangla,Shangla,0,Flood,2010-0341,2010-0341-PAK,34.80951109,72.72467592,160000,Km2,28/7/2010,1985,2946,20356550,0,20359496,9500000,84.25273272
4761,Pakistan,PAK,770,2010,15261,Swat,3,N.W.F.P.,Malakand,Swat,Swat,0,Flood,2010-0341,2010-0341-PAK,35.25719914,72.46150207,160000,Km2,28/7/2010,1985,2946,20356550,0,20359496,9500000,84.25273272
4763,Pakistan,PAK,770,2011,14949,Badin,3,Sind,Hyderabad,Badin,Badin,0,Flood,2011-0347,2011-0347-PAK,24.72000106,68.86415853,32667,Km2,12/8/2011,509,755,5400000,0,5400755,2500000,86.91246502
4763,Pakistan,PAK,770,2011,15262,Tando Allahyar,3,Sind,Hyderabad,Tando Allahyar,Tando Allahyar,0,Flood,2011-0347,2011-0347-PAK,24.98455067,68.46955555,32667,Km2,12/8/2011,509,755,5400000,0,5400755,2500000,86.91246502
4763,Pakistan,PAK,770,2011,15263,Tando M. Khan,3,Sind,Hyderabad,Tando M. Khan,Tando Mohammad Khan,0,Flood,2011-0347,2011-0347-PAK,25.46783537,68.81319969,32667,Km2,12/8/2011,509,755,5400000,0,5400755,2500000,86.91246502
4769,Pakistan,PAK,770,2013,14932,Awaran,3,Baluchistan,Kalat,Awaran,Awaran,0,Earthquake,2013-0381,2013-0381-PAK,26.2668239,65.36172789,8,Richter,24/9/2013,399,599,185150,0,185749,100000,90.01044002
4769,Pakistan,PAK,770,2013,15023,Gwadar,3,Baluchistan,Makran,Gwadar,Gwadar,0,Earthquake,2013-0381,2013-0381-PAK,25.41622635,63.167094,8,Richter,24/9/2013,399,599,185150,0,185749,100000,90.01044002
4769,Pakistan,PAK,770,2013,15063,Kech,3,Baluchistan,Makran,Kech,Kech,0,Earthquake,2013-0381,2013-0381-PAK,26.01734455,63.07480738,8,Richter,24/9/2013,399,599,185150,0,185749,100000,90.01044002
4769,Pakistan,PAK,770,2013,15072,Khuzdar,3,Baluchistan,Kalat,Khuzdar,Khuzdar,0,Earthquake,2013-0381,2013-0381-PAK,27.49908033,66.70188635,8,Richter,24/9/2013,399,599,185150,0,185749,100000,90.01044002
4769,Pakistan,PAK,770,2013,15149,Panjgur,3,Baluchistan,Makran,Panjgur,Panjgur,0,Earthquake,2013-0381,2013-0381-PAK,26.74728565,64.18793605,8,Richter,24/9/2013,399,599,185150,0,185749,100000,90.01044002
4772,Pakistan,PAK,770,2014,15020,Gujrat,3,Punjab,Gujranwala,Gujrat,Gujrat,0,Flood,2014-0343,2014-0343-PAK,32.72797249,73.96045675,253686,Km2,1/9/2014,255,673,2530000,0,2530673,2000000,91.47061409
4772,Pakistan,PAK,770,2014,15024,Hafizabad,3,Punjab,Gujranwala,Hafizabad,Hafizabad,0,Flood,2014-0343,2014-0343-PAK,32.02659926,73.49610745,253686,Km2,1/9/2014,255,673,2530000,0,2530673,2000000,91.47061409
4772,Pakistan,PAK,770,2014,15225,Sialkot,3,Punjab,Gujranwala,Sialkot,Sialko,0,Flood,2014-0343,2014-0343-PAK,32.43010166,74.49452872,253686,Km2,1/9/2014,255,673,2530000,0,2530673,2000000,91.47061409
4933,Peru,PER,135,2015,15624,Indiana,3,Loreto,Maynas,Indiana,Indiana,0,Flood,2015-0199,2015-0199-PER,-3.804237787,-72.87938601,0,Km2,9/4/2015,0,0,147405,0,147405,0,91.57911703
4933,Peru,PER,135,2015,15705,Punchana,3,Loreto,Maynas,Punchana,Punchana,0,Flood,2015-0199,2015-0199-PER,-3.544761401,-73.45520812,0,Km2,9/4/2015,0,0,147405,0,147405,0,91.57911703
5220,Philippines,PHL,840,2006,18333,Putik,3,Zamboanga Del Sur,Zamboanga City,Putik,Putik,0,Flood,2006-0563,2006-0563-PHL,6.939302319,122.092816,0,Km2,4/10/2006,3,0,4250,0,4250,399,77.89139999
5220,Philippines,PHL,840,2006,18914,Tetuan,3,Zamboanga Del Sur,Zamboanga City,Tetuan,Tetuan,0,Flood,2006-0563,2006-0563-PHL,6.926107338,122.0862031,0,Km2,4/10/2006,3,0,4250,0,4250,399,77.89139999
5283,Philippines,PHL,840,2010,17259,Katuli,3,Maguindanao,Sultan Kudarat,Katuli,Katuli,0,Flood,2010-0281,2010-0281-PHL,7.245488622,124.2363847,0,Km2,1/6/2010,0,0,200000,0,200000,0,84.25273272
5283,Philippines,PHL,840,2010,18603,Senditan,3,Maguindanao,Sultan Kudarat,Senditan,Senditan,0,Flood,2010-0281,2010-0281-PHL,7.277680197,124.2487035,0,Km2,1/6/2010,0,0,200000,0,200000,0,84.25273272
5309,Philippines,PHL,840,2011,17266,Klinan 6,3,South Cotabato,Polomolok,Klinan 6,Klinan 6,0,Flood,2011-0367,2011-0367-PHL,6.17860864,125.1270588,0,Km2,19/9/2011,0,0,274,0,274,115,86.91246502
5309,Philippines,PHL,840,2011,18932,Upper Klinan,3,South Cotabato,Polomolok,Upper Klinan,Upper Klinan,0,Flood,2011-0367,2011-0367-PHL,6.232454633,125.1134273,0,Km2,19/9/2011,0,0,274,0,274,115,86.91246502
5562,Rwanda,RWA,517,2001,19632,Mushubi,3,Amajyepfo,Nyamagabe,Mushubi,Mushubi,0,Flood,2001-0541,2001-0541-RWA,-2.312734341,29.44945665,1770,Km2,22/9/2001,10,0,0,0,0,0,68.41537906
5783,South Africa,ZAF,560,2012,20245,Makana,3,Eastern Cape,Cacadu,Makana,Makana,0,Flood,2012-0469,2012-0469-ZAF,-33.23566945,26.40873494,14489,Km2,24/10/2012,13,0,125000,0,125000,200000,88.71096898
5783,South Africa,ZAF,560,2012,20253,Ndlambe,3,Eastern Cape,Cacadu,Ndlambe,Ndlambe,0,Flood,2012-0469,2012-0469-ZAF,-33.5239009,26.7420609,14489,Km2,24/10/2012,13,0,125000,0,125000,200000,88.71096898
6163,Tanzania,TZA,510,2001,21327,Kigogo,3,Dar Es Salaam,Kinondoni,Kigogo,Kigogo,0,Flood,2001-0109,2001-0109-TZA,-6.816138762,39.24900635,108,Km2,27/2/2001,5,0,0,200,200,0,68.41537906
6163,Tanzania,TZA,510,2001,21359,Manzese,3,Dar Es Salaam,Kinondoni,Manzese,Manzese,0,Flood,2001-0109,2001-0109-TZA,-6.797857161,39.23119735,108,Km2,27/2/2001,5,0,0,200,200,0,68.41537906
6163,Tanzania,TZA,510,2001,21419,Ubungo,3,Dar Es Salaam,Kinondoni,Ubungo,Ubungo area.,0,Flood,2001-0109,2001-0109-TZA,-6.787859328,39.20560505,108,Km2,27/2/2001,5,0,0,200,200,0,68.41537906
6179,Tanzania,TZA,510,2011,21328,Kigogo,3,Dar Es Salaam,Kinondoni,Kigogo,Kigogo,0,Flood,2011-0535,2011-0535-TZA,-6.816138762,39.24900635,5900,Km2,20/12/2011,20,200,50000,0,50200,0,86.91246502
6179,Tanzania,TZA,510,2011,21384,Mwananyamala,3,Dar Es Salaam,Kinondoni,Mwananyamala,Mwananyamala,0,Flood,2011-0535,2011-0535-TZA,-6.785497037,39.25931353,5900,Km2,20/12/2011,20,200,50000,0,50200,0,86.91246502
6179,Tanzania,TZA,510,2011,21412,Tandale,3,Dar Es Salaam,Kinondoni,Tandale,Tandale,0,Flood,2011-0535,2011-0535-TZA,-6.79431157,39.24234903,5900,Km2,20/12/2011,20,200,50000,0,50200,0,86.91246502
6179,Tanzania,TZA,510,2011,21420,Ubungo,3,Dar Es Salaam,Kinondoni,Ubungo,Ubungo,0,Flood,2011-0535,2011-0535-TZA,-6.787859328,39.20560505,5900,Km2,20/12/2011,20,200,50000,0,50200,0,86.91246502
1012,Canada,CAN,20,2003,3530,Squamish-Lillooet C,3,British Columbia,Squamish-Lillooet,Squamish-Lillooet C,Pemberton,0,Flood,2003-0511,2003-0511-CAN,50.43656014,-123.1242386,0,Km2,17/10/2003,2,0,800,0,800,15000,71.07819758
1099,Chile,CHL,155,1995,3699,Copiapo,3,Atacama,Copiapo,Copiapo,Copiapo,0,Earthquake,1995-0171,1995-0171-CHL,-27.31083434,-69.75745575,8,Richter,30/7/1995,3,58,1200,575,1833,1660,58.87818329
1115,Chile,CHL,155,2005,3694,Colchane,3,Tarapaca,Iquique,Colchane,Colchane,0,Earthquake,2005-0321,2005-0321-CHL,-19.30180115,-68.81594861,8,Richter,13/6/2005,11,182,27463,0,27645,5000,75.45719958
2396,Greece,GRC,350,1999,6942,Athens,3,Attica,Attica,Athens,Haidari,0,Earthquake,1999-0302,1999-0302-GRC,37.98627768,23.73434117,6,Richter,7/9/1999,143,2000,113031,108,115139,4200000,64.36159282
2408,Greece,GRC,350,2003,7019,Saronikos,3,Attica,Attica,Saronikos,Aguistri Island,0,Flood,2003-0044,2003-0044-GRC,37.78468611,23.93888924,0,Km2,25/1/2003,0,0,450,0,450,0,71.07819758
3439,Italy,ITA,325,1984,10364,Assisi,3,Umbria,Perugia,Assisi,Assisi,0,Earthquake,1984-0038,1984-0038-ITA,43.08711524,12.62617111,6,Richter,29/4/1984,0,200,0,4000,4200,0,40.13865994
3439,Italy,ITA,325,1984,10428,Gubbio,3,Umbria,Perugia,Gubbio,Gubbio,0,Earthquake,1984-0038,1984-0038-ITA,43.33174618,12.54754695,6,Richter,29/4/1984,0,200,0,4000,4200,0,40.13865994
3441,Italy,ITA,325,1984,10354,Adrano,3,Sicily,Catania,Adrano,Mt Etna,0,Earthquake,1984-0274,1984-0274-ITA,37.69573249,14.85737864,0,Richter,20/10/1984,1,2,0,300,302,0,40.13865994
3441,Italy,ITA,325,1984,10395,Catania,3,Sicily,Catania,Catania,Catania,0,Earthquake,1984-0274,1984-0274-ITA,37.44306509,15.03625581,0,Richter,20/10/1984,1,2,0,300,302,0,40.13865994
3454,Italy,ITA,325,1996,10392,Carrara,3,Toscana,Massa Carrara,Carrara,Carrara,0,Flood,1996-0148,1996-0148-ITA,44.08263753,10.09490277,66760,Km2,19/6/1996,17,0,300,0,300,32000,60.60402838
3454,Italy,ITA,325,1996,10450,Massa,3,Toscana,Massa Carrara,Massa,Massa,0,Flood,1996-0148,1996-0148-ITA,44.05587533,10.1623538,66760,Km2,19/6/1996,17,0,300,0,300,32000,60.60402838
3468,Italy,ITA,325,2002,10396,Catania,3,Sicily,Catania,Catania,Catania,0,Earthquake,2002-0680,2002-0680-ITA,37.44306509,15.03625581,4,Richter,29/10/2002,0,9,0,1000,1009,0,69.50047255
3468,Italy,ITA,325,2002,10426,Giarre,3,Sicily,Catania,Giarre,Giarre,0,Earthquake,2002-0680,2002-0680-ITA,37.71976193,15.1688887,4,Richter,29/10/2002,0,9,0,1000,1009,0,69.50047255
3468,Italy,ITA,325,2002,10497,Santa Venerina,3,Sicily,Catania,Santa Venerina,Santa Venerina,0,Earthquake,2002-0680,2002-0680-ITA,37.68461043,15.14278779,4,Richter,29/10/2002,0,9,0,1000,1009,0,69.50047255
3468,Italy,ITA,325,2002,10560,Zafferana Etnea,3,Sicily,Catania,Zafferana Etnea,Zafferana Etnea,0,Earthquake,2002-0680,2002-0680-ITA,37.71079934,15.06350598,4,Richter,29/10/2002,0,9,0,1000,1009,0,69.50047255
3479,Italy,ITA,325,2009,10410,Fossa,3,Abruzzo,L'Aquila,Fossa,Fossa,0,Earthquake,2009-0136,2009-0136-ITA,42.3043236,13.49441292,6,Richter,6/4/2009,295,1000,0,55000,56000,2500000,82.89324989
3479,Italy,ITA,325,2009,10451,Massa D' Albe,3,Abruzzo,L'Aquila,Massa D' Albe,Massa d'Albe,0,Earthquake,2009-0136,2009-0136-ITA,42.12189749,13.42346092,6,Richter,6/4/2009,295,1000,0,55000,56000,2500000,82.89324989
3479,Italy,ITA,325,2009,10485,Poggio Picenze,3,Abruzzo,L'Aquila,Poggio Picenze,Poggio Picenze,0,Earthquake,2009-0136,2009-0136-ITA,42.31824455,13.54193551,6,Richter,6/4/2009,295,1000,0,55000,56000,2500000,82.89324989
3479,Italy,ITA,325,2009,10559,Villa Sant' Angelo,3,Abruzzo,L'Aquila,Villa Sant' Angelo,Villa San't Angelo,0,Earthquake,2009-0136,2009-0136-ITA,42.26642005,13.5366084,6,Richter,6/4/2009,295,1000,0,55000,56000,2500000,82.89324989
3480,Italy,ITA,325,2009,10500,Scaletta Zanclea,3,Sicily,Messina,Scaletta Zanclea,Scalettta Zanclea,0,Flood,2009-0428,2009-0428-ITA,38.05382601,15.45536043,1227,Km2,1/10/2009,35,140,0,5000,5140,20000,82.89324989
3480,Italy,ITA,325,2009,10515,Taormina,3,Sicily,Messina,Taormina,Taormina,0,Flood,2009-0428,2009-0428-ITA,37.84554421,15.26527952,1227,Km2,1/10/2009,35,140,0,5000,5140,20000,82.89324989
3485,Italy,ITA,325,2012,10407,Finale Emilia,3,Emilia-Romagna,Modena,Finale Emilia,Finale Emilia,0,Earthquake,2012-0142,2012-0142-ITA,44.85031444,11.26754673,6,Richter,20/5/2012,7,50,11000,0,11050,15800000,88.71096898
3485,Italy,ITA,325,2012,10459,Mirandola,3,Emilia-Romagna,Modena,Mirandola,Mirandola,0,Earthquake,2012-0142,2012-0142-ITA,44.90819352,11.12550806,6,Richter,20/5/2012,7,50,11000,0,11050,15800000,88.71096898
3488,Italy,ITA,325,2013,10363,Arzachena,3,Sardegna,Olbia-Tempio,Arzachena,Arzachena,0,Flood,2013-0441,2013-0441-ITA,41.09138949,9.413225328,15699,Km2,18/11/2013,18,0,2700,0,2700,780000,90.01044002
3488,Italy,ITA,325,2013,10469,Olbia,3,Sardegna,Olbia-Tempio,Olbia,Olbia,0,Flood,2013-0441,2013-0441-ITA,40.92528806,9.473691388,15699,Km2,18/11/2013,18,0,2700,0,2700,780000,90.01044002
4366,Mozambique,MOZ,541,2001,13682,Cidade Da Beira,3,Sofala,Dondo,Cidade Da Beira,Beira,0,Flood,2001-0019,2001-0019-MOZ,-19.71616933,34.93000086,200000,Km2,1/1/2001,79,0,549326,0,549326,36000,68.41537906
4366,Mozambique,MOZ,541,2001,13691,Cidade De Quelimane,3,Zambezia,Nicoadala,Cidade De Quelimane,Qualimane city,0,Flood,2001-0019,2001-0019-MOZ,-17.85806251,36.91355453,200000,Km2,1/1/2001,79,0,549326,0,549326,36000,68.41537906
4369,Mozambique,MOZ,541,2003,13692,Cidade De Quelimane,3,Zambezia,Nicoadala,Cidade De Quelimane,Quelimane,0,Flood,2003-0020,2003-0020-MOZ,-17.85806251,36.91355453,0,Km2,1/1/2003,4,3,100000,0,100003,0,71.07819758
4376,Mozambique,MOZ,541,2007,13693,Cidade De Quelimane,3,Zambezia,Nicoadala,Cidade De Quelimane,Quelimane,0,Flood,2007-0020,2007-0020-MOZ,-17.85806251,36.91355453,0,Km2,17/1/2007,29,0,285000,0,285000,71000,80.11339326
4458,Nepal,NPL,790,2003,14212,Kailali,3,Far-Western,Seti,Kailali,Kailali,0,Flood,2003-0341,2003-0341-NPL,28.74158889,80.88083089,137100,Km2,3/7/2003,239,284,43395,15575,59254,0,71.07819758
4464,Nepal,NPL,790,2008,14213,Kailali,3,Far-Western,Seti,Kailali,Kailali,0,Flood,2008-0431,2008-0431-NPL,28.74158889,80.88083089,168100,Km2,22/9/2008,50,3,180000,0,180003,0,83.18902296
4466,Nepal,NPL,790,2009,14214,Kailali,3,Far-Western,Seti,Kailali,Kailali,0,Flood,2009-0434,2009-0434-NPL,28.74158889,80.88083089,129700,Km2,4/10/2009,87,62,257724,0,257786,60000,82.89324989
4468,Nepal,NPL,790,2010,14215,Kailali,3,Far-Western,Seti,Kailali,Kailali,0,Flood,2010-0452,2010-0452-NPL,28.74158889,80.88083089,0,Km2,21/8/2010,138,0,8000,0,8000,0,84.25273272
4472,Nepal,NPL,790,2013,14216,Kailali,3,Far-Western,Seti,Kailali,Kailali,0,Flood,2013-0456,2013-0456-NPL,28.74158889,80.88083089,0,Km2,25/5/2013,76,29,12474,0,12503,0,90.01044002
4734,Pakistan,PAK,770,2005,15056,Kashmore,3,Sind,Larkana,Kashmore,Kashmore,0,Flood,2005-0360,2005-0360-PAK,28.26887647,69.31052708,28630,Km2,21/6/2005,39,0,460073,0,460073,0,75.45719958
1099,Chile,CHL,155,1995,3682,Caldera,3,Atacama,Copiapo,Caldera,Caldera,0,Earthquake,1995-0171,1995-0171-CHL,-27.2862012,-70.71313794,8,Richter,30/7/1995,3,58,1200,575,1833,1660,58.87818329
4727,Pakistan,PAK,770,2003,15267,Thatta,3,Sind,Hyderabad,Thatta,Thatta,0,Flood,2003-0359,2003-0359-PAK,24.49305581,67.96954949,3079,Km2,22/7/2003,230,456,1265767,0,1266223,0,71.07819758
4731,Pakistan,PAK,770,2005,15150,Gwadar,3,Baluchistan,Makran,Gwadar,Pasni Tehsil,0,Flood,2005-0079,2005-0079-PAK,25.41654733,63.16460845,123200,Km2,9/2/2005,520,450,7000000,0,7000450,30000,75.45719958
4736,Pakistan,PAK,770,2005,15147,Mansehra,3,N.W.F.P.,Hazara,Mansehra,Oghi,0,Earthquake,2005-0575,2005-0575-PAK,34.70139943,73.41185282,8,Richter,8/10/2005,73338,128309,0,5000000,5128309,5200000,75.45719958
01-1082,Pakistan,PAK,770,2012,28175,Kashmore,3,Sind,Larkana,Kashmore, Kashmore,0,Flood,2012-0363,2012-0363-PAK,28.26887647,69.31052708,23036,Km2,0/8/2012,480,2902,5046462,0,5049364,2500000,88.71096898
01-1082,Pakistan,PAK,770,2012,28176,Jafarabad,3,Baluchistan,Nasirabad,Jafarabad, Jaffarabad,0,Flood,2012-0363,2012-0363-PAK,28.27551142,68.14901471,23036,Km2,0/8/2012,480,2902,5046462,0,5049364,2500000,88.71096898
01-1082,Pakistan,PAK,770,2012,28177,Jhal Magsi,3,Baluchistan,Nasirabad,Jhal Magsi, Jhal Magsi ,0,Flood,2012-0363,2012-0363-PAK,28.3866247,67.55317578,23036,Km2,0/8/2012,480,2902,5046462,0,5049364,2500000,88.71096898
01-1082,Pakistan,PAK,770,2012,28187,Rajan Pur,3,Punjab,Dera Ghazi Khan,Rajan Pur, Rajanpur ,0,Flood,2012-0363,2012-0363-PAK,29.13716591,70.16249331,23036,Km2,0/8/2012,480,2902,5046462,0,5049364,2500000,88.71096898
01-1082,Pakistan,PAK,770,2012,28188,Jakobabad,3,Sind,Larkana,Jakobabad, Jacobabad,0,Flood,2012-0363,2012-0363-PAK,28.2338154,68.59937842,23036,Km2,0/8/2012,480,2902,5046462,0,5049364,2500000,88.71096898
01-1121,Peru,PER,135,1987,28279,Villa Rica,3,Pasco,Oxapampa,Villa Rica,Villarica,0,Flood,1987-0023,1987-0023-PER,-10.66378978,-75.21330616,0,Km2,0/2/1987,73,19,2500,500,3019,0,43.90266239
01-1124,Peru,PER,135,2006,28294,Papayal,3,Tumbes,Zarumilla,Papayal, Papayal,0,Flood,2006-0147,2006-0147-PER,-3.569580695,-80.28694954,0,Km2,0/1/2006,0,0,15000,325,15325,0,77.89139999
01-1124,Peru,PER,135,2006,28295,Aguas Verdes,3,Tumbes,Zarumilla,Aguas Verdes, Aguas Verdes,0,Flood,2006-0147,2006-0147-PER,-3.491378752,-80.24254926,0,Km2,0/1/2006,0,0,15000,325,15325,0,77.89139999
01-1124,Peru,PER,135,2006,28298,Casitas,3,Tumbes,Contralmirante Villar,Casitas, Casitas,0,Flood,2006-0147,2006-0147-PER,-4.041721649,-80.67365622,0,Km2,0/1/2006,0,0,15000,325,15325,0,77.89139999
01-1124,Peru,PER,135,2006,28300,Zorritos,3,Tumbes,Contralmirante Villar,Zorritos,Zorritos,0,Flood,2006-0147,2006-0147-PER,-3.915413233,-80.79199399,0,Km2,0/1/2006,0,0,15000,325,15325,0,77.89139999
01-1127,Peru,PER,135,2011,28347,Iquitos,3,Loreto,Maynas,Iquitos, Iquitos,0,Flood,2011-0660,2011-0660-PER,-4.056390548,-73.55054451,0,Km2,0/12/2011,65,107,809838,0,809945,0,86.91246502
01-1127,Peru,PER,135,2011,28352,Punchana,3,Loreto,Maynas,Punchana, Punchana,0,Flood,2011-0660,2011-0660-PER,-3.544621141,-73.45600779,0,Km2,0/12/2011,65,107,809838,0,809945,0,86.91246502
01-1127,Peru,PER,135,2011,28356,Urarinas,3,Loreto,Loreto,Urarinas, Urarinas,0,Flood,2011-0660,2011-0660-PER,-4.310883565,-75.4805887,0,Km2,0/12/2011,65,107,809838,0,809945,0,86.91246502
01-1127,Peru,PER,135,2011,28363,Nauta,3,Loreto,Loreto,Nauta, Nauta,0,Flood,2011-0660,2011-0660-PER,-4.451629107,-74.11250616,0,Km2,0/12/2011,65,107,809838,0,809945,0,86.91246502
01-1127,Peru,PER,135,2011,28365,Parinari,3,Loreto,Loreto,Parinari, Parinari,0,Flood,2011-0660,2011-0660-PER,-5.033200283,-74.84060587,0,Km2,0/12/2011,65,107,809838,0,809945,0,86.91246502
01-358,China,CHN,710,2000,29448,Longhai,3,Fujian,Zhangzhou,Longhai,Longhai County,0,Flood,2000-0372,2000-0372-CHN,24.40279889,117.7898384,76000,Km2,17/6/2000,43,10,0,31000,31010,19000,66.53499421
01-519,Greece,GRC,350,2001,29764,Lavreotiki,3,Attica,Attica,Lavreotiki, Cape Sounion,0,Flood,2001-0031,2001-0031-GRC,37.74182211,24.01426872,0,Km2,0/1/2001,11,0,450,0,450,0,68.41537906
01-519,Greece,GRC,350,2001,29765,Athens,3,Attica,Attica,Athens,Athens,0,Flood,2001-0031,2001-0031-GRC,37.98627768,23.73434117,0,Km2,0/1/2001,11,0,450,0,450,0,68.41537906
11-Feb,Albania,ALB,339,2016,30641,Permet,3,Gjirokaster,Permetit,Permet,Permet province,0,Flood,2016-0420,2016-0420-ALB,40.23452944,20.3353701,16543,Km2,7/11/2016,2,0,4500,0,4500,0,92.73447917
11-Feb,Albania,ALB,339,2016,30643,Kelcyre,3,Gjirokaster,Permetit,Kelcyre, Kelcyre district ,0,Flood,2016-0420,2016-0420-ALB,40.27551711,20.16411792,16543,Km2,7/11/2016,2,0,4500,0,4500,0,92.73447917
12-Feb,Albania,ALB,339,2017,30709,Cakran,3,Fier,Fierit,Cakran, Kashisht ,0,Flood,2017-0504,2017-0504-ALB,40.60738922,19.59548129,10463,Km2,30/11/2017,1,2,21000,0,21002,8900,94.70984073
12-Feb,Albania,ALB,339,2017,30710,Frakull,3,Fier,Fierit,Frakull, Ferras ,0,Flood,2017-0504,2017-0504-ALB,40.63986552,19.50804983,10463,Km2,30/11/2017,1,2,21000,0,21002,8900,94.70984073
12-Feb,Albania,ALB,339,2017,30714,Kashar,3,Tirane,Tiranes,Kashar, Kashar,0,Flood,2017-0504,2017-0504-ALB,41.34010177,19.71952129,10463,Km2,30/11/2017,1,2,21000,0,21002,8900,94.70984073
12-Feb,Albania,ALB,339,2017,30718,Roskovec,3,Fier,Fierit,Roskovec, Roskovec,0,Flood,2017-0504,2017-0504-ALB,40.75977987,19.68356093,10463,Km2,30/11/2017,1,2,21000,0,21002,8900,94.70984073
12-Feb,Albania,ALB,339,2017,30719,Vore,3,Tirane,Tiranes,Vore, Ure Vajgurore,0,Flood,2017-0504,2017-0504-ALB,41.38517996,19.64963141,10463,Km2,30/11/2017,1,2,21000,0,21002,8900,94.70984073
12-Feb,Albania,ALB,339,2017,30720,Fushe Kruje,3,Durres,Krujes,Fushe Kruje,Fush- Kruj,0,Flood,2017-0504,2017-0504-ALB,41.47331194,19.73120214,10463,Km2,30/11/2017,1,2,21000,0,21002,8900,94.70984073
12-Feb,Albania,ALB,339,2017,30721,Bubq,3,Durres,Krujes,Bubq,Bubq,0,Flood,2017-0504,2017-0504-ALB,41.47945161,19.65060771,10463,Km2,30/11/2017,1,2,21000,0,21002,8900,94.70984073
12-Feb,Albania,ALB,339,2017,30722,Kamez,3,Tirane,Tiranes,Kamez, Laknas ,0,Flood,2017-0504,2017-0504-ALB,41.37958475,19.75731638,10463,Km2,30/11/2017,1,2,21000,0,21002,8900,94.70984073
02-134,China,CHN,710,2017,30814,Kai,3,Chongqing,Chongqing,Kai,Kaizhou,0,Flood,2017-0398,2017-0398-CHN,31.27688221,108.3798416,283444,Km2,24/9/2017,16,0,53100,8400,61500,361000,94.70984073
02-134,China,CHN,710,2017,30817,Yunyang,3,Chongqing,Chongqing,Yunyang, Yunyang,0,Flood,2017-0398,2017-0398-CHN,31.04052604,108.8512045,283444,Km2,24/9/2017,16,0,53100,8400,61500,361000,94.70984073
02-215,Greece,GRC,350,2017,31267,Megara,3,Attica,Attica,Megara, Megara ,0,Flood,2017-0444,2017-0444-GRC,38.02537663,23.27232799,2571,Km2,11/11/2017,23,24,6000,0,6024,0,94.70984073
02-215,Greece,GRC,350,2017,31269,Igoumenitsa,3,Epirus And Western Macedonia,Epirus,Igoumenitsa, Igoumenitsa ,0,Flood,2017-0444,2017-0444-GRC,39.42973141,20.34590645,2571,Km2,11/11/2017,23,24,6000,0,6024,0,94.70984073
02-215,Greece,GRC,350,2017,31270,Ioannina,3,Epirus And Western Macedonia,Epirus,Ioannina,Ioanninon,0,Flood,2017-0444,2017-0444-GRC,39.64073796,20.88356567,2571,Km2,11/11/2017,23,24,6000,0,6024,0,94.70984073
02-215,Greece,GRC,350,2017,31271,Athens,3,Attica,Attica,Athens, Nea Peramos,0,Flood,2017-0444,2017-0444-GRC,37.98627768,23.73434117,2571,Km2,11/11/2017,23,24,6000,0,6024,0,94.70984073
02-216,Greece,GRC,350,2017,31273,Chios,3,Aegean,North Aegean,Chios, Chios,0,Earthquake,2017-0182,2017-0182-GRC,38.40162418,26.01645711,6,Richter,12/6/2017,1,11,720,0,731,0,94.70984073
02-216,Greece,GRC,350,2017,31274,Lesbos,3,Aegean,North Aegean,Lesbos, Skala,0,Earthquake,2017-0182,2017-0182-GRC,39.16932619,26.24317151,6,Richter,12/6/2017,1,11,720,0,731,0,94.70984073
02-266,India,IND,750,2016,31614,Bhiwandi,3,Maharashtra,Thane,Bhiwandi,Bhiwandi,0,Flood,2016-0304,2016-0304-IND,19.37046368,73.10086628,0,Km2,1/8/2016,37,0,3000,0,3000,0,92.73447917
02-344,Italy,ITA,325,2016,32072,Ussita,3,Marche,Macerata,Ussita, Ussita ,0,Earthquake,2016-0357,2016-0357-ITA,42.94319527,13.16456177,6,Richter,26/10/2016,1,24,3003,0,3027,200000,92.73447917
02-344,Italy,ITA,325,2016,32074,Visso,3,Marche,Macerata,Visso,Visso,0,Earthquake,2016-0357,2016-0357-ITA,42.93666077,13.05289036,6,Richter,26/10/2016,1,24,3003,0,3027,200000,92.73447917
02-345,Italy,ITA,325,2016,32078,Norcia,3,Umbria,Perugia,Norcia,Norcia ,0,Earthquake,2016-0358,2016-0358-ITA,42.78750686,13.12321239,7,Richter,30/10/2016,0,20,22272,0,22292,200000,92.73447917
02-347,Italy,ITA,325,2016,32082,Posta,3,Lazio,Rieti,Posta, Posta ,0,Earthquake,2016-0313,2016-0313-ITA,42.51807589,13.08189344,6,Richter,24/8/2016,296,400,4454,0,4854,5000000,92.73447917
02-347,Italy,ITA,325,2016,32083,Amatrice,3,Lazio,Rieti,Amatrice,Amatrice,0,Earthquake,2016-0313,2016-0313-ITA,42.62709606,13.29368687,6,Richter,24/8/2016,296,400,4454,0,4854,5000000,92.73447917
02-347,Italy,ITA,325,2016,32087,Accumoli,3,Lazio,Rieti,Accumoli, Accumoli,0,Earthquake,2016-0313,2016-0313-ITA,42.69616689,13.24490763,6,Richter,24/8/2016,296,400,4454,0,4854,5000000,92.73447917
02-348,Italy,ITA,325,2017,32088,Castel Castagna,3,Abruzzo,Teramo,Castel Castagna, Csatel Castagna,0,Earthquake,2017-0015,2017-0015-ITA,42.54235193,13.73225423,5,Richter,18/1/2017,29,11,0,0,11,18000,94.70984073
02-348,Italy,ITA,325,2017,32090,Capitignano,3,Abruzzo,L'Aquila,Capitignano, Capitignano,0,Earthquake,2017-0015,2017-0015-ITA,42.52398289,13.30606871,5,Richter,18/1/2017,29,11,0,0,11,18000,94.70984073
02-348,Italy,ITA,325,2017,32092,Castiglione Messer Raimondo,3,Abruzzo,Teramo,Castiglione Messer Raimondo, Csatigkione Messer Raimondo,0,Earthquake,2017-0015,2017-0015-ITA,42.52090251,13.86980652,5,Richter,18/1/2017,29,11,0,0,11,18000,94.70984073
